[
    {
        "Categoria": "Market - AMBA",
        "Identificador": 118,
        "Nombre": "118 - MERCADO - TT",
        "Latitud": -34.59166287,
        "Longitud": -58.39029551,
        "Domicilio": "Vicente López 1676",
        "CD_ORIGEN": "Malvinas",
        "Turnos": "primera_ventana"
    },
    {
        "Categoria": "Hiper - AMBA",
        "Identificador": 3,
        "Nombre": "3 - San Lorenzo",
        "Latitud": -34.63471754,
        "Longitud": -58.42379093,
        "Domicilio": "null",
        "CD_ORIGEN": "E.Echeverria",
        "Turnos": "primera_ventana"
    },
    {
        "Categoria": "Hiper - AMBA",
        "Identificador": 5,
        "Nombre": "5 - VELEZ SARSFIELD - TT",
        "Latitud": -34.6334595,
        "Longitud": -58.52250159,
        "Domicilio": "Av. Alvarez Jonte 6383",
        "CD_ORIGEN": "Munro",
        "Turnos": "primera_ventana"
    },
    {
        "Categoria": "Mini Hiper - AMBA",
        "Identificador": 219,
        "Nombre": "219 - CABALLITO",
        "Latitud": -34.61104616,
        "Longitud": -58.45984384,
        "Domicilio": "Av. Donato Alvarez 1351",
        "CD_ORIGEN": "Tortuguitas",
        "Turnos": "segunda_ventana"
    },
    {
        "Categoria": "Mini Hiper - AMBA",
        "Identificador": 214,
        "Nombre": "214 - VILLA DEVOTO",
        "Latitud": -34.61084416,
        "Longitud": -58.5162735,
        "Domicilio": "José P. Varela 4750",
        "CD_ORIGEN": "NIC",
        "Turnos": "segunda_ventana"
    },
    {
        "Categoria": "Market - AMBA",
        "Identificador": 206,
        "Nombre": "206 - Barrio Norte Beruti",
        "Latitud": -34.59033804,
        "Longitud": -58.40514019,
        "Domicilio": "Beruti 2951",
        "CD_ORIGEN": "Cordoba",
        "Turnos": "primera_ventana"
    },
    {
        "Categoria": "Hiper - AMBA",
        "Identificador": 6,
        "Nombre": "6 - SALGUERO",
        "Latitud": -34.5749242,
        "Longitud": -58.40435028,
        "Domicilio": "Salguero 3212",
        "CD_ORIGEN": "Mendoza",
        "Turnos": "primera_ventana"
    },
    {
        "Categoria": "Market - AMBA",
        "Identificador": 228,
        "Nombre": "228 - Colegiales",
        "Latitud": -34.57538358,
        "Longitud": -58.45920146,
        "Domicilio": "Av. Elcano 3380",
        "CD_ORIGEN": "Malvinas",
        "Turnos": "primera_ventana"
    },
    {
        "Categoria": "Hiper - AMBA",
        "Identificador": 26,
        "Nombre": "26 - WARNES",
        "Latitud": -34.59583525,
        "Longitud": -58.47288767,
        "Domicilio": "Av. Warnes 2707",
        "CD_ORIGEN": "E.Echeverria",
        "Turnos": "primera_ventana"
    },
    {
        "Categoria": "Mini Hiper - AMBA",
        "Identificador": 271,
        "Nombre": "271 - Nu?ez",
        "Latitud": -34.55350793,
        "Longitud": -58.45302701,
        "Domicilio": "Monroe 1655",
        "CD_ORIGEN": "Munro",
        "Turnos": "primera_ventana"
    },
    {
        "Categoria": "Mini Hiper - AMBA",
        "Identificador": 220,
        "Nombre": "220 - VILLA URQUIZA",
        "Latitud": -34.5770885,
        "Longitud": -58.49501967,
        "Domicilio": "Av. Franklin Roosevelt 5749",
        "CD_ORIGEN": "Tortuguitas",
        "Turnos": "segunda_ventana"
    },
    {
        "Categoria": "Mini Hiper - AMBA",
        "Identificador": 30,
        "Nombre": "30 - MATADEROS",
        "Latitud": -34.66333158,
        "Longitud": -58.5142082,
        "Domicilio": "Av. Gral. Paz 12950",
        "CD_ORIGEN": "NIC",
        "Turnos": "segunda_ventana"
    },
    {
        "Categoria": "Mini Hiper - AMBA",
        "Identificador": 297,
        "Nombre": "297 - Gral. Rodriguez",
        "Latitud": -34.61127684,
        "Longitud": -58.94123197,
        "Domicilio": "Boulevard Bernardo De Irigoyen 1500",
        "CD_ORIGEN": "Cordoba",
        "Turnos": "primera_ventana"
    },
    {
        "Categoria": "Hiper - AMBA",
        "Identificador": 230,
        "Nombre": "1 - SAN ISIDRO",
        "Latitud": -34.49121567,
        "Longitud": -58.59057069,
        "Domicilio": "Bernardo de Irigoyen 2647",
        "CD_ORIGEN": "Mendoza",
        "Turnos": "primera_ventana"
    },
    {
        "Categoria": "Mini Hiper - AMBA",
        "Identificador": 234,
        "Nombre": "234 - DON TORCUATO",
        "Latitud": -34.49112368,
        "Longitud": -58.62802583,
        "Domicilio": "Av. M. A. Alvear 1960",
        "CD_ORIGEN": "Malvinas",
        "Turnos": "primera_ventana"
    },
    {
        "Categoria": "Mini Hiper - AMBA",
        "Identificador": 239,
        "Nombre": "239 - GRAL. PACHECO",
        "Latitud": -34.4616311,
        "Longitud": -58.62993479,
        "Domicilio": "Boulogne sur Mer 301",
        "CD_ORIGEN": "E.Echeverria",
        "Turnos": "primera_ventana"
    },
    {
        "Categoria": "Mini Hiper - AMBA",
        "Identificador": 183,
        "Nombre": "183 - Maschwitz",
        "Latitud": -34.39579991,
        "Longitud": -58.73725533,
        "Domicilio": "Ruta 9 Panamericana y Moreno",
        "CD_ORIGEN": "Munro",
        "Turnos": "primera_ventana"
    },
    {
        "Categoria": "Market - AMBA",
        "Identificador": 187,
        "Nombre": "187 - ESCOBAR",
        "Latitud": -34.34432411,
        "Longitud": -58.78964961,
        "Domicilio": "Gelves 530",
        "CD_ORIGEN": "Tortuguitas",
        "Turnos": "primera_ventana"
    },
    {
        "Categoria": "Market - AMBA",
        "Identificador": 62,
        "Nombre": "62 - PILAR II",
        "Latitud": -34.44831558,
        "Longitud": -58.91673018,
        "Domicilio": "Colectora Panamericana esq Champagnat",
        "CD_ORIGEN": "NIC",
        "Turnos": "primera_ventana"
    },
    {
        "Categoria": "Hiper - AMBA",
        "Identificador": 28,
        "Nombre": "28 - PILAR",
        "Latitud": -34.45670374,
        "Longitud": -58.8932848,
        "Domicilio": "null",
        "CD_ORIGEN": "Cordoba",
        "Turnos": "segunda_ventana"
    },
    {
        "Categoria": "Hiper - AMBA",
        "Identificador": 2,
        "Nombre": "2 - VICENTE LOPEZ",
        "Latitud": -34.53198886,
        "Longitud": -58.46638441,
        "Domicilio": "Av. Libertador 215",
        "CD_ORIGEN": "Mendoza",
        "Turnos": "segunda_ventana"
    },
    {
        "Categoria": "Market - AMBA",
        "Identificador": 226,
        "Nombre": "226 - Martinez Edison",
        "Latitud": -34.49232103,
        "Longitud": -58.49963307,
        "Domicilio": "Av. Santa Fe 2349",
        "CD_ORIGEN": "Malvinas",
        "Turnos": "primera_ventana"
    },
    {
        "Categoria": "Mini Hiper - AMBA",
        "Identificador": 204,
        "Nombre": "204 - Olivos - ugarte",
        "Latitud": -34.51635582,
        "Longitud": -58.49450312,
        "Domicilio": "Ugarte 1980",
        "CD_ORIGEN": "E.Echeverria",
        "Turnos": "primera_ventana"
    },
    {
        "Categoria": "Market - AMBA",
        "Identificador": 211,
        "Nombre": "211 - Martinez",
        "Latitud": -34.48774037,
        "Longitud": -58.50592017,
        "Domicilio": "Italia y Sáenz Valiente",
        "CD_ORIGEN": "Munro",
        "Turnos": "primera_ventana"
    },
    {
        "Categoria": "Market - AMBA",
        "Identificador": 216,
        "Nombre": "216 - Vicente Lopez",
        "Latitud": -34.52958481,
        "Longitud": -58.48152816,
        "Domicilio": "Av. Maipú 940",
        "CD_ORIGEN": "Tortuguitas",
        "Turnos": "primera_ventana"
    },
    {
        "Categoria": "Market - AMBA",
        "Identificador": 272,
        "Nombre": "272 - SAN FERNANDO",
        "Latitud": -34.44174298,
        "Longitud": -58.55353475,
        "Domicilio": "Juan D. Perón 1350",
        "CD_ORIGEN": "NIC",
        "Turnos": "primera_ventana"
    },
    {
        "Categoria": "Hiper - AMBA",
        "Identificador": 25,
        "Nombre": "25 - SAN FERNANDO",
        "Latitud": -34.45455401,
        "Longitud": -58.57658029,
        "Domicilio": "Panamericana Acceso Tigre y Ruta 202",
        "CD_ORIGEN": "Cordoba",
        "Turnos": "primera_ventana"
    },
    {
        "Categoria": "Market - AMBA",
        "Identificador": 221,
        "Nombre": "221 - Tigre",
        "Latitud": -34.43296521,
        "Longitud": -58.56552958,
        "Domicilio": "Alte. Brown 371",
        "CD_ORIGEN": "Mendoza",
        "Turnos": "primera_ventana"
    },
    {
        "Categoria": "Mini Hiper - AMBA",
        "Identificador": 51,
        "Nombre": "51 - Tigre Nordelta",
        "Latitud": -34.4047232,
        "Longitud": -58.62111568,
        "Domicilio": "Av. Sta. María de las Conchas 4711 Rincón de Milb",
        "CD_ORIGEN": "Malvinas",
        "Turnos": "primera_ventana"
    },
    {
        "Categoria": "Hiper - AMBA",
        "Identificador": 15,
        "Nombre": "15 - SAN MARTIN",
        "Latitud": -34.585689,
        "Longitud": -58.519683,
        "Domicilio": "Av. San Martín 420",
        "CD_ORIGEN": "E.Echeverria",
        "Turnos": "segunda_ventana"
    },
    {
        "Categoria": "Market - AMBA",
        "Identificador": 278,
        "Nombre": "278 - Marquez",
        "Latitud": -34.51746154,
        "Longitud": -58.57027173,
        "Domicilio": "Av. Márquez 1271",
        "CD_ORIGEN": "Munro",
        "Turnos": "segunda_ventana"
    },
    {
        "Categoria": "Hiper - AMBA",
        "Identificador": 11,
        "Nombre": "11 - SAN MIGUEL",
        "Latitud": -34.52912516,
        "Longitud": -58.70128155,
        "Domicilio": "Av. Pres. Arturo Umberto Illia 3770 B1663 San Mig",
        "CD_ORIGEN": "Tortuguitas",
        "Turnos": "segunda_ventana"
    },
    {
        "Categoria": "Maxi - AMBA",
        "Identificador": 705,
        "Nombre": "705 - MAXI-J.C.PAZ",
        "Latitud": -34.52949641,
        "Longitud": -58.77254248,
        "Domicilio": "Av. Hipolito Yrigoyen 3750",
        "CD_ORIGEN": "NIC",
        "Turnos": "segunda_ventana"
    },
    {
        "Categoria": "Mini Hiper - AMBA",
        "Identificador": 47,
        "Nombre": "47 - Martin Coronado",
        "Latitud": -34.58662294,
        "Longitud": -58.59265155,
        "Domicilio": "Av. Pte Perón 7055",
        "CD_ORIGEN": "Cordoba",
        "Turnos": "segunda_ventana"
    },
    {
        "Categoria": "Market - AMBA",
        "Identificador": 205,
        "Nombre": "205 - Palomar",
        "Latitud": -34.60322341,
        "Longitud": -58.59204054,
        "Domicilio": "De Los Ceibos 233",
        "CD_ORIGEN": "Mendoza",
        "Turnos": "segunda_ventana"
    },
    {
        "Categoria": "Market - AMBA",
        "Identificador": 218,
        "Nombre": "218 - Hurlingham",
        "Latitud": -34.59159266,
        "Longitud": -58.63600865,
        "Domicilio": "Av. Vergara 4121",
        "CD_ORIGEN": "Malvinas",
        "Turnos": "segunda_ventana"
    },
    {
        "Categoria": "Mini Hiper - AMBA",
        "Identificador": 10,
        "Nombre": "10 - MORON",
        "Latitud": -34.62128511,
        "Longitud": -58.63727331,
        "Domicilio": "Av. Vergara 1910",
        "CD_ORIGEN": "E.Echeverria",
        "Turnos": "primera_ventana"
    },
    {
        "Categoria": "Mini Hiper - AMBA",
        "Identificador": 43,
        "Nombre": "43 - Haedo",
        "Latitud": -34.63916642,
        "Longitud": -58.58094692,
        "Domicilio": "Dr. Luis Guemes 369 Esq. Defensa",
        "CD_ORIGEN": "Munro",
        "Turnos": "segunda_ventana"
    },
    {
        "Categoria": "Mini Hiper - AMBA",
        "Identificador": 294,
        "Nombre": "294 - Ituzaingo 2",
        "Latitud": -34.66601418,
        "Longitud": -58.66278648,
        "Domicilio": "Blas Parera 650",
        "CD_ORIGEN": "Tortuguitas",
        "Turnos": "segunda_ventana"
    },
    {
        "Categoria": "Mini Hiper - AMBA",
        "Identificador": 36,
        "Nombre": "36 - Ituzaingo",
        "Latitud": -34.64792816,
        "Longitud": -58.6888293,
        "Domicilio": "Intendente Ratti 1860",
        "CD_ORIGEN": "NIC",
        "Turnos": "segunda_ventana"
    },
    {
        "Categoria": "Mini Hiper - AMBA",
        "Identificador": 42,
        "Nombre": "42 - Merlo",
        "Latitud": -34.67841135,
        "Longitud": -58.72871518,
        "Domicilio": "Av. Argentina 1930",
        "CD_ORIGEN": "Cordoba",
        "Turnos": "segunda_ventana"
    },
    {
        "Categoria": "Hiper - AMBA",
        "Identificador": 21,
        "Nombre": "21 - MORENO",
        "Latitud": -34.63087731,
        "Longitud": -58.76291871,
        "Domicilio": "Acceso Gaona y Graham Bell",
        "CD_ORIGEN": "Mendoza",
        "Turnos": "primera_ventana"
    },
    {
        "Categoria": "Market - AMBA",
        "Identificador": 212,
        "Nombre": "212 - Malaver",
        "Latitud": -34.55756366,
        "Longitud": -58.55098128,
        "Domicilio": "América 4006 B1744 Villa Ballester Buenos Aires",
        "CD_ORIGEN": "Malvinas",
        "Turnos": "primera_ventana"
    },
    {
        "Categoria": "Maxi - AMBA",
        "Identificador": 703,
        "Nombre": "703 - MAXI- MORENO",
        "Latitud": -34.59018788,
        "Longitud": -58.75046521,
        "Domicilio": "Av. del Libertador 7001 B1736ACF Trujui Buenos A",
        "CD_ORIGEN": "E.Echeverria",
        "Turnos": "primera_ventana"
    },
    {
        "Categoria": "Hiper - AMBA",
        "Identificador": 12,
        "Nombre": "12 - SAN JUSTO",
        "Latitud": -34.66527293,
        "Longitud": -58.59691143,
        "Domicilio": "Av. Don Bosco 2680",
        "CD_ORIGEN": "Munro",
        "Turnos": "primera_ventana"
    },
    {
        "Categoria": "Maxi - AMBA",
        "Identificador": 701,
        "Nombre": "701 - MAXI LAFERRERE",
        "Latitud": -34.75396305,
        "Longitud": -58.61231804,
        "Domicilio": "Brigadier Juan Manuel de Rosas 13380",
        "CD_ORIGEN": "Tortuguitas",
        "Turnos": "segunda_ventana"
    },
    {
        "Categoria": "Mini Hiper - AMBA",
        "Identificador": 231,
        "Nombre": "231 - LOMAS",
        "Latitud": -34.76954632,
        "Longitud": -58.4104979,
        "Domicilio": "Vicente Oliden 452 B1832MIH Lomas de Zamora Buen",
        "CD_ORIGEN": "NIC",
        "Turnos": "segunda_ventana"
    },
    {
        "Categoria": "Mini Hiper - AMBA",
        "Identificador": 52,
        "Nombre": "52 - BANFIELD",
        "Latitud": -34.74905084,
        "Longitud": -58.41134816,
        "Domicilio": "Las Heras 1050",
        "CD_ORIGEN": "Cordoba",
        "Turnos": "segunda_ventana"
    },
    {
        "Categoria": "Mini Hiper - AMBA",
        "Identificador": 40,
        "Nombre": "40 - Temperley",
        "Latitud": -34.76372338,
        "Longitud": -58.36428291,
        "Domicilio": "Eva Peron 2679",
        "CD_ORIGEN": "Mendoza",
        "Turnos": "primera_ventana"
    },
    {
        "Categoria": "Maxi - AMBA",
        "Identificador": 706,
        "Nombre": "706 - MAXI-LOMAS",
        "Latitud": -34.73776851,
        "Longitud": -58.43509912,
        "Domicilio": "Av. Gral. Martín Rodríguez 1502 B1821 Ingeniero B",
        "CD_ORIGEN": "Malvinas",
        "Turnos": "segunda_ventana"
    },
    {
        "Categoria": "Hiper - AMBA",
        "Identificador": 16,
        "Nombre": "16 - MONTE GRANDE",
        "Latitud": -34.78235088,
        "Longitud": -58.46005976,
        "Domicilio": "Camino de Cintura 2200",
        "CD_ORIGEN": "E.Echeverria",
        "Turnos": "segunda_ventana"
    },
    {
        "Categoria": "Hiper - AMBA",
        "Identificador": 23,
        "Nombre": "23 - ADROGUE",
        "Latitud": -34.81228821,
        "Longitud": -58.40204358,
        "Domicilio": "Av. Hipolito Yrigoyen 13500",
        "CD_ORIGEN": "Munro",
        "Turnos": "primera_ventana"
    },
    {
        "Categoria": "Maxi - AMBA",
        "Identificador": 702,
        "Nombre": "702 - MAXI CLAYPOLE",
        "Latitud": -34.82228543,
        "Longitud": -58.3663702,
        "Domicilio": "Av. Monte Verde 7008",
        "CD_ORIGEN": "Tortuguitas",
        "Turnos": "segunda_ventana"
    },
    {
        "Categoria": "Mini Hiper - AMBA",
        "Identificador": 56,
        "Nombre": "56 - GLEW",
        "Latitud": -34.88334345,
        "Longitud": -58.3884716,
        "Domicilio": "Avda Hipolito Yrigoyen 20260",
        "CD_ORIGEN": "NIC",
        "Turnos": "segunda_ventana"
    },
    {
        "Categoria": "Hiper - AMBA",
        "Identificador": 20,
        "Nombre": "20 - AVELLANEDA",
        "Latitud": -34.65920567,
        "Longitud": -58.37573352,
        "Domicilio": "Av. Pavón 299",
        "CD_ORIGEN": "Cordoba",
        "Turnos": "segunda_ventana"
    },
    {
        "Categoria": "Mini Hiper - AMBA",
        "Identificador": 274,
        "Nombre": "274 - Quilmes 1",
        "Latitud": -34.72508925,
        "Longitud": -58.25574517,
        "Domicilio": "Humberto primo y Moreno",
        "CD_ORIGEN": "Mendoza",
        "Turnos": "primera_ventana"
    },
    {
        "Categoria": "Mini Hiper - AMBA",
        "Identificador": 227,
        "Nombre": "227 - BERNAL",
        "Latitud": -34.71440559,
        "Longitud": -58.2979846,
        "Domicilio": "Av. Dardo Rocha 849",
        "CD_ORIGEN": "Malvinas",
        "Turnos": "segunda_ventana"
    },
    {
        "Categoria": "Hiper - AMBA",
        "Identificador": 7,
        "Nombre": "7 - QUILMES",
        "Latitud": -34.73411835,
        "Longitud": -58.27731013,
        "Domicilio": "Av. La Plata 1400",
        "CD_ORIGEN": "E.Echeverria",
        "Turnos": "primera_ventana"
    },
    {
        "Categoria": "Maxi - AMBA",
        "Identificador": 704,
        "Nombre": "704 - MAXI EZPELETA",
        "Latitud": -34.74788055,
        "Longitud": -58.22376251,
        "Domicilio": "Av. Mitre 5530",
        "CD_ORIGEN": "Munro",
        "Turnos": "primera_ventana"
    },
    {
        "Categoria": "Mini Hiper - AMBA",
        "Identificador": 49,
        "Nombre": "49 - Fcio. Varela",
        "Latitud": -34.77915218,
        "Longitud": -58.27756763,
        "Domicilio": "Av. Gral San Martín 554",
        "CD_ORIGEN": "Tortuguitas",
        "Turnos": "segunda_ventana"
    },
    {
        "Categoria": "Hiper - AMBA",
        "Identificador": 8,
        "Nombre": "8 - LA PLATA",
        "Latitud": -34.89349921,
        "Longitud": -57.99742699,
        "Domicilio": "Camino Gral. Belgrano 514517",
        "CD_ORIGEN": "NIC",
        "Turnos": "primera_ventana"
    },
    {
        "Categoria": "Mini Hiper - Interior",
        "Identificador": 41,
        "Nombre": "41 - ROSARIO VILLAGE",
        "Latitud": -32.93383458,
        "Longitud": -60.70226312,
        "Domicilio": "Av. Eva Peron 5856",
        "CD_ORIGEN": "Cordoba",
        "Turnos": "primera_ventana"
    },
    {
        "Categoria": "Mini Hiper - Interior",
        "Identificador": 268,
        "Nombre": "268 - Rosario",
        "Latitud": -32.94235708,
        "Longitud": -60.65769553,
        "Domicilio": "Pueyrredon 747",
        "CD_ORIGEN": "Mendoza",
        "Turnos": "segunda_ventana"
    },
    {
        "Categoria": "Mini Hiper - Interior",
        "Identificador": 32,
        "Nombre": "32 - ROSARIO PELLEGRINI",
        "Latitud": -32.95096397,
        "Longitud": -60.67156799,
        "Domicilio": "Carlos Pellegrini 3250",
        "CD_ORIGEN": "Malvinas",
        "Turnos": "primera_ventana"
    },
    {
        "Categoria": "Mini Hiper - Interior",
        "Identificador": 33,
        "Nombre": "33 - ROSARIO 27 DE FEBRERO",
        "Latitud": -32.96933742,
        "Longitud": -60.62943578,
        "Domicilio": "Necochea 2579",
        "CD_ORIGEN": "E.Echeverria",
        "Turnos": "primera_ventana"
    },
    {
        "Categoria": "Hiper - Interior",
        "Identificador": 18,
        "Nombre": "18 - ROSARIO",
        "Latitud": -32.90518149,
        "Longitud": -60.72813034,
        "Domicilio": "Av. Circunvalación 1977 Bis",
        "CD_ORIGEN": "Munro",
        "Turnos": "primera_ventana"
    },
    {
        "Categoria": "Mini Hiper - Interior",
        "Identificador": 259,
        "Nombre": "259 - VENADO TUERTO",
        "Latitud": -33.74446841,
        "Longitud": -61.98418736,
        "Domicilio": "Bv. 12 de Octubre 1060 Venado Tuerto Santa Fe A",
        "CD_ORIGEN": "Tortuguitas",
        "Turnos": "segunda_ventana"
    },
    {
        "Categoria": "Mini Hiper - AMBA",
        "Identificador": 217,
        "Nombre": "217 - SAN MIGUEL",
        "Latitud": -34.55311029,
        "Longitud": -58.69849205,
        "Domicilio": "Av. Pte. Perón 111",
        "CD_ORIGEN": "NIC",
        "Turnos": "segunda_ventana"
    },
    {
        "Categoria": "Mini Hiper - Interior",
        "Identificador": 229,
        "Nombre": "229 - PERGAMINO",
        "Latitud": -33.9010118,
        "Longitud": -60.55172414,
        "Domicilio": "Santiago del Estero 1351",
        "CD_ORIGEN": "Cordoba",
        "Turnos": "primera_ventana"
    },
    {
        "Categoria": "Mini Hiper - AMBA",
        "Identificador": 210,
        "Nombre": "210 - ZARATE",
        "Latitud": -34.11346561,
        "Longitud": -59.02195036,
        "Domicilio": "Laprida 1465",
        "CD_ORIGEN": "Mendoza",
        "Turnos": "primera_ventana"
    },
    {
        "Categoria": "Mini Hiper - AMBA",
        "Identificador": 232,
        "Nombre": "232 - CAMPANA IIPANAMERICANA",
        "Latitud": -34.18633459,
        "Longitud": -58.94569516,
        "Domicilio": "Colectora Norte 1647",
        "CD_ORIGEN": "Malvinas",
        "Turnos": "segunda_ventana"
    },
    {
        "Categoria": "Mini Hiper - Interior",
        "Identificador": 240,
        "Nombre": "240 - GUALEGUAYCHU",
        "Latitud": -32.9917833,
        "Longitud": -58.52140188,
        "Domicilio": "Primera Junta y Ruta N° 136",
        "CD_ORIGEN": "E.Echeverria",
        "Turnos": "primera_ventana"
    },
    {
        "Categoria": "Mini Hiper - Interior",
        "Identificador": 156,
        "Nombre": "156 - San Nicolas tia",
        "Latitud": -33.33184591,
        "Longitud": -60.22011995,
        "Domicilio": "Bartolomé Mitre 264 B2900ACF San Nicolás de Los A",
        "CD_ORIGEN": "Munro",
        "Turnos": "primera_ventana"
    },
    {
        "Categoria": "Market - Interior",
        "Identificador": 256,
        "Nombre": "256 - San Nicolas",
        "Latitud": -33.33577272,
        "Longitud": -60.22303668,
        "Domicilio": "Av. Moreno n° 10",
        "CD_ORIGEN": "Tortuguitas",
        "Turnos": "primera_ventana"
    },
    {
        "Categoria": "Market - Interior",
        "Identificador": 243,
        "Nombre": "243 - San Juan Parana Hiper",
        "Latitud": -31.72628726,
        "Longitud": -60.52443266,
        "Domicilio": "San Juan 609",
        "CD_ORIGEN": "NIC",
        "Turnos": "segunda_ventana"
    },
    {
        "Categoria": "Market - Interior",
        "Identificador": 244,
        "Nombre": "244 - Yrigoyen Parana Central",
        "Latitud": -31.73711886,
        "Longitud": -60.52508354,
        "Domicilio": "H. Yrigoyen 223 63",
        "CD_ORIGEN": "Cordoba",
        "Turnos": "segunda_ventana"
    },
    {
        "Categoria": "Hiper - Interior",
        "Identificador": 233,
        "Nombre": "233 - Concordia",
        "Latitud": -31.36870742,
        "Longitud": -58.01237226,
        "Domicilio": "Av. Eva Perón 2250",
        "CD_ORIGEN": "Mendoza",
        "Turnos": "primera_ventana"
    },
    {
        "Categoria": "Hiper - Interior",
        "Identificador": 159,
        "Nombre": "159 - HIP.CORRIENTES 1",
        "Latitud": -27.47668367,
        "Longitud": -58.81594062,
        "Domicilio": "Av. Pedro Ferré 2985",
        "CD_ORIGEN": "Malvinas",
        "Turnos": "primera_ventana"
    },
    {
        "Categoria": "Mini Hiper - Interior",
        "Identificador": 108,
        "Nombre": "108 - Resistencia",
        "Latitud": -27.45196106,
        "Longitud": -58.98822427,
        "Domicilio": "Juan Domingo Perón 2",
        "CD_ORIGEN": "E.Echeverria",
        "Turnos": "primera_ventana"
    },
    {
        "Categoria": "Mini Hiper - Interior",
        "Identificador": 44,
        "Nombre": "44 - RESISTENCIA",
        "Latitud": -27.43857407,
        "Longitud": -58.98822427,
        "Domicilio": "Av. Avalos 691 y Lavalle",
        "CD_ORIGEN": "Munro",
        "Turnos": "segunda_ventana"
    },
    {
        "Categoria": "Mini Hiper - Interior",
        "Identificador": 55,
        "Nombre": "55 - FORMOSA 2",
        "Latitud": -26.19047947,
        "Longitud": -58.1873247,
        "Domicilio": "Luis Gutniski entre Gonzalez y Fretes",
        "CD_ORIGEN": "Tortuguitas",
        "Turnos": "segunda_ventana"
    },
    {
        "Categoria": "Mini Hiper - Interior",
        "Identificador": 46,
        "Nombre": "46 - TUCUMAN III",
        "Latitud": -26.8146396,
        "Longitud": -65.21017671,
        "Domicilio": "Av. Catamarca 1116",
        "CD_ORIGEN": "NIC",
        "Turnos": "segunda_ventana"
    },
    {
        "Categoria": "Market - Interior",
        "Identificador": 601,
        "Nombre": "601 - YERBA BUENA",
        "Latitud": -26.81273415,
        "Longitud": -65.29243469,
        "Domicilio": "ACONQUIJA 1591",
        "CD_ORIGEN": "Cordoba",
        "Turnos": "segunda_ventana"
    },
    {
        "Categoria": "Mini Hiper - Interior",
        "Identificador": 112,
        "Nombre": "112 - SALTA",
        "Latitud": -24.78893585,
        "Longitud": -65.41434646,
        "Domicilio": "20 de February 37",
        "CD_ORIGEN": "Mendoza",
        "Turnos": "segunda_ventana"
    },
    {
        "Categoria": "Mini Hiper - Interior",
        "Identificador": 171,
        "Nombre": "171 - SALTA III",
        "Latitud": -24.78296492,
        "Longitud": -65.41237235,
        "Domicilio": "Virrey Toledo y Entre ríos",
        "CD_ORIGEN": "Malvinas",
        "Turnos": "segunda_ventana"
    },
    {
        "Categoria": "Market - Interior",
        "Identificador": 175,
        "Nombre": "175 - SALTA 7",
        "Latitud": -24.77993553,
        "Longitud": -65.42759657,
        "Domicilio": "AV. Entre Ríos y República Siria",
        "CD_ORIGEN": "E.Echeverria",
        "Turnos": "segunda_ventana"
    },
    {
        "Categoria": "Market - Interior",
        "Identificador": 167,
        "Nombre": "167 - Jujuy I",
        "Latitud": -24.18383299,
        "Longitud": -65.30623198,
        "Domicilio": "Balcarce 408",
        "CD_ORIGEN": "Munro",
        "Turnos": "segunda_ventana"
    },
    {
        "Categoria": "Market - Interior",
        "Identificador": 168,
        "Nombre": "168 - Jujuy II",
        "Latitud": -24.18825674,
        "Longitud": -65.30336738,
        "Domicilio": "19 de April 0779",
        "CD_ORIGEN": "Tortuguitas",
        "Turnos": "segunda_ventana"
    },
    {
        "Categoria": "Market - Interior",
        "Identificador": 132,
        "Nombre": "132 - Catamarca",
        "Latitud": -28.4727939,
        "Longitud": -65.77890158,
        "Domicilio": "Peatonal Rivadavia 945 K4700 San Fernando del Val",
        "CD_ORIGEN": "NIC",
        "Turnos": "primera_ventana"
    },
    {
        "Categoria": "Hiper - Interior",
        "Identificador": 178,
        "Nombre": "178 - Catamarca II",
        "Latitud": -28.47730836,
        "Longitud": -65.77881156,
        "Domicilio": "Av. Hipólito Yrigoyen 1283 K4700 San Fernando del",
        "CD_ORIGEN": "Cordoba",
        "Turnos": "primera_ventana"
    },
    {
        "Categoria": "Mini Hiper - Interior",
        "Identificador": 50,
        "Nombre": "50 - RECTA MARTINOLI",
        "Latitud": -31.34689336,
        "Longitud": -64.26969767,
        "Domicilio": "Av. Recta Martinolli 7850",
        "CD_ORIGEN": "Mendoza",
        "Turnos": "primera_ventana"
    },
    {
        "Categoria": "Maxi - Interior",
        "Identificador": 707,
        "Nombre": "707 - MAXI-CORDOBA III",
        "Latitud": -31.36794708,
        "Longitud": -64.17835236,
        "Domicilio": "Juan B. Justo 4775 Barrio Panamericano",
        "CD_ORIGEN": "Malvinas",
        "Turnos": "primera_ventana"
    },
    {
        "Categoria": "CD",
        "Identificador": 97,
        "Nombre": "97 - EDC CORDOBA",
        "Latitud": -31.39408819,
        "Longitud": -64.24347331,
        "Domicilio": "A. Colón 4880 - Córdoba",
        "CD_ORIGEN": "E.Echeverria",
        "Turnos": "primera_ventana"
    },
    {
        "Categoria": "Hiper - Interior",
        "Identificador": 9,
        "Nombre": "9 - CORDOBA COLON",
        "Latitud": -31.39413394,
        "Longitud": -64.2438519,
        "Domicilio": "A. Colón 4880 - Córdoba",
        "CD_ORIGEN": "Munro",
        "Turnos": "segunda_ventana"
    },
    {
        "Categoria": "Hiper - Interior",
        "Identificador": 24,
        "Nombre": "24 - CORDOBA JARDIN",
        "Latitud": -31.45621502,
        "Longitud": -64.16557431,
        "Domicilio": "O'Higgins 3700 - Barrio Jardín",
        "CD_ORIGEN": "Tortuguitas",
        "Turnos": "primera_ventana"
    },
    {
        "Categoria": "Mini Hiper - Interior",
        "Identificador": 54,
        "Nombre": "54 - VILLA ALLENDE",
        "Latitud": -31.29998655,
        "Longitud": -64.27668214,
        "Domicilio": "Avda. Padre Luchessi esq. Mendoza",
        "CD_ORIGEN": "NIC",
        "Turnos": "primera_ventana"
    },
    {
        "Categoria": "Mini Hiper - Interior",
        "Identificador": 123,
        "Nombre": "123 - San Juan",
        "Latitud": -31.53347276,
        "Longitud": -68.52552116,
        "Domicilio": "Gral. Mariano Acha Sur 32 J5402EGB San Juan Arge",
        "CD_ORIGEN": "Cordoba",
        "Turnos": "segunda_ventana"
    },
    {
        "Categoria": "Market - Interior",
        "Identificador": 282,
        "Nombre": "282 - MendozaColon",
        "Latitud": -32.89445278,
        "Longitud": -68.84516001,
        "Domicilio": "Colon 324",
        "CD_ORIGEN": "Mendoza",
        "Turnos": "segunda_ventana"
    },
    {
        "Categoria": "Market - Interior",
        "Identificador": 288,
        "Nombre": "288 - MendozaSexta",
        "Latitud": -32.86871116,
        "Longitud": -68.85298133,
        "Domicilio": "Jorge A. Calle 631",
        "CD_ORIGEN": "Malvinas",
        "Turnos": "segunda_ventana"
    },
    {
        "Categoria": "Mini Hiper - Interior",
        "Identificador": 29,
        "Nombre": "29 - MENDOZA II",
        "Latitud": -32.8849661,
        "Longitud": -68.84806752,
        "Domicilio": "Las Heras 798 -Ciudad Mendoza",
        "CD_ORIGEN": "E.Echeverria",
        "Turnos": "primera_ventana"
    },
    {
        "Categoria": "Maxi - Interior",
        "Identificador": 59,
        "Nombre": "59 - MendozaGodoy Cruz",
        "Latitud": -32.923366,
        "Longitud": -68.84601831,
        "Domicilio": "Rivadavia & Avenida San Martín Godoy Cruz Mendoz",
        "CD_ORIGEN": "Munro",
        "Turnos": "segunda_ventana"
    },
    {
        "Categoria": "Hiper - Interior",
        "Identificador": 17,
        "Nombre": "17 - MENDOZA",
        "Latitud": -32.90850523,
        "Longitud": -68.78876925,
        "Domicilio": "entre Rondeau Lateral Sur del Acceso Este M5521",
        "CD_ORIGEN": "Tortuguitas",
        "Turnos": "primera_ventana"
    },
    {
        "Categoria": "CD",
        "Identificador": 85,
        "Nombre": "85 - EDC MENDOZA",
        "Latitud": -32.90827784,
        "Longitud": -68.78893722,
        "Domicilio": "Lateral Sur del Acceso Este 4241 M5521 AWH Mendo",
        "CD_ORIGEN": "NIC",
        "Turnos": "segunda_ventana"
    },
    {
        "Categoria": "Market - Interior",
        "Identificador": 285,
        "Nombre": "285 - MendozaTunuyan",
        "Latitud": -33.57568174,
        "Longitud": -69.01543736,
        "Domicilio": "Av. San Martín 1333 M5500EFA Mendoza Argentina",
        "CD_ORIGEN": "Cordoba",
        "Turnos": "primera_ventana"
    },
    {
        "Categoria": "Market - Interior",
        "Identificador": 286,
        "Nombre": "286 - MendozaTupungato",
        "Latitud": -33.36384142,
        "Longitud": -69.1442585,
        "Domicilio": "Belgrano 1170 Mendoza Argentina",
        "CD_ORIGEN": "Mendoza",
        "Turnos": "segunda_ventana"
    },
    {
        "Categoria": "Market - Interior",
        "Identificador": 284,
        "Nombre": "284 - MendozaSan Martin",
        "Latitud": -33.08207601,
        "Longitud": -68.46994042,
        "Domicilio": "Balcarce 141 Godoy Cruz Mendoza Argentina",
        "CD_ORIGEN": "Malvinas",
        "Turnos": "segunda_ventana"
    },
    {
        "Categoria": "Mini Hiper - Interior",
        "Identificador": 235,
        "Nombre": "235 - VILLA MERCEDES",
        "Latitud": -33.67558637,
        "Longitud": -65.47041535,
        "Domicilio": "Av. 25 de Mayo 876 D5730 Villa Mercedes San Luis",
        "CD_ORIGEN": "E.Echeverria",
        "Turnos": "segunda_ventana"
    },
    {
        "Categoria": "Market - Interior",
        "Identificador": 147,
        "Nombre": "147 - SANTA ROSA",
        "Latitud": -36.6182962,
        "Longitud": -64.2905277,
        "Domicilio": "Avellaneda 151 L6302 Santa Rosa La Pampa Argent",
        "CD_ORIGEN": "Munro",
        "Turnos": "primera_ventana"
    },
    {
        "Categoria": "Mini Hiper - AMBA",
        "Identificador": 241,
        "Nombre": "241 - LUJAN - TT",
        "Latitud": -34.56125693,
        "Longitud": -59.10410643,
        "Domicilio": "Av. Pellegrini 1050",
        "CD_ORIGEN": "Tortuguitas",
        "Turnos": "primera_ventana"
    },
    {
        "Categoria": "Mini Hiper - Interior",
        "Identificador": 31,
        "Nombre": "31 - Tandil - TT",
        "Latitud": -37.32373287,
        "Longitud": -59.11379457,
        "Domicilio": "Panamá 351",
        "CD_ORIGEN": "NIC",
        "Turnos": "segunda_ventana"
    },
    {
        "Categoria": "Mini Hiper - Interior",
        "Identificador": 57,
        "Nombre": "57 - Tandil - TT",
        "Latitud": -37.31427901,
        "Longitud": -59.14932847,
        "Domicilio": "Av. del Valle 334",
        "CD_ORIGEN": "Cordoba",
        "Turnos": "primera_ventana"
    },
    {
        "Categoria": "Mini Hiper - Interior",
        "Identificador": 139,
        "Nombre": "139 - Olavarria - TT",
        "Latitud": -36.89379667,
        "Longitud": -60.32140017,
        "Domicilio": "Rivadavia 2846",
        "CD_ORIGEN": "Mendoza",
        "Turnos": "primera_ventana"
    },
    {
        "Categoria": "Hiper - Interior",
        "Identificador": 22,
        "Nombre": "22 - MAR DEL PLATA - TT",
        "Latitud": -37.95384645,
        "Longitud": -57.57830501,
        "Domicilio": "Av. Constitución 7598",
        "CD_ORIGEN": "Malvinas",
        "Turnos": "segunda_ventana"
    },
    {
        "Categoria": "Mini Hiper - Interior",
        "Identificador": 58,
        "Nombre": "58 - Balcarce - TT",
        "Latitud": -37.83307316,
        "Longitud": -58.23876143,
        "Domicilio": "Av San Martín 504",
        "CD_ORIGEN": "E.Echeverria",
        "Turnos": "primera_ventana"
    },
    {
        "Categoria": "Hiper - Interior",
        "Identificador": 157,
        "Nombre": "157 - NEUQUEN II 157 - TT",
        "Latitud": -38.95850357,
        "Longitud": -68.05776294,
        "Domicilio": "Av. Cnel. Olascoaga 350 Q8300 Neuquén Argentina",
        "CD_ORIGEN": "Munro",
        "Turnos": "primera_ventana"
    },
    {
        "Categoria": "Mini Hiper - Interior",
        "Identificador": 53,
        "Nombre": "53 - NEUQUEN 2 - TT",
        "Latitud": -38.94657662,
        "Longitud": -68.10923696,
        "Domicilio": "Antártida Argentina 3600 Q8304JEP Neuquén Argent",
        "CD_ORIGEN": "Tortuguitas",
        "Turnos": "segunda_ventana"
    },
    {
        "Categoria": "Market - Interior",
        "Identificador": 136,
        "Nombre": "136 - GRAL.ROCA 136 - TT",
        "Latitud": -39.03057306,
        "Longitud": -67.5744648,
        "Domicilio": "25 de Mayo 622 R8332 Gral. Roca Río Negro Argen",
        "CD_ORIGEN": "NIC",
        "Turnos": "primera_ventana"
    },
    {
        "Categoria": "Mini Hiper - Interior",
        "Identificador": 149,
        "Nombre": "149 - BARILOCHE - TT",
        "Latitud": -41.13648801,
        "Longitud": -71.29655957,
        "Domicilio": "Moreno 909 R8400 San Carlos de Bariloche Río Neg",
        "CD_ORIGEN": "Cordoba",
        "Turnos": "segunda_ventana"
    },
    {
        "Categoria": "Mini Hiper - Interior",
        "Identificador": 292,
        "Nombre": "292 - COMODORO RIVADAVIA - TT",
        "Latitud": -45.86970727,
        "Longitud": -67.53397822,
        "Domicilio": "Av. Polonia 1340",
        "CD_ORIGEN": "Mendoza",
        "Turnos": "primera_ventana"
    },
    {
        "Categoria": "Market - Interior",
        "Identificador": 128,
        "Nombre": "128 - COMODORO RIVADAVIA - TT",
        "Latitud": -45.86194687,
        "Longitud": -67.48072807,
        "Domicilio": "Pellegrini 851",
        "CD_ORIGEN": "Malvinas",
        "Turnos": "primera_ventana"
    },
    {
        "Categoria": "Mini Hiper - Interior",
        "Identificador": 63,
        "Nombre": "63 - CALETA OLIVIA - TT",
        "Latitud": -46.44467341,
        "Longitud": -67.53421426,
        "Domicilio": "Avenida Tierra del Fuego 856",
        "CD_ORIGEN": "E.Echeverria",
        "Turnos": "segunda_ventana"
    },
    {
        "Categoria": "Mini Hiper - Interior",
        "Identificador": 162,
        "Nombre": "162 - TRELEW - TT",
        "Latitud": -43.25854997,
        "Longitud": -65.30439707,
        "Domicilio": "Soberanía Nacional 140",
        "CD_ORIGEN": "Munro",
        "Turnos": "primera_ventana"
    },
    {
        "Categoria": "Mini Hiper - Interior",
        "Identificador": 45,
        "Nombre": "45 - TRELEW - TT",
        "Latitud": -43.25848703,
        "Longitud": -65.32786131,
        "Domicilio": "25 de Mayo 1665 Esq Corrientes y Mexico",
        "CD_ORIGEN": "Tortuguitas",
        "Turnos": "primera_ventana"
    },
    {
        "Categoria": "Mini Hiper - Interior",
        "Identificador": 179,
        "Nombre": "179 - PUERTO MADRYN - TT",
        "Latitud": -42.77543332,
        "Longitud": -65.05005687,
        "Domicilio": "Gales y Piedrabuena",
        "CD_ORIGEN": "NIC",
        "Turnos": "primera_ventana"
    },
    {
        "Categoria": "Hiper - Interior",
        "Identificador": 48,
        "Nombre": "48 - HIPER RIO GALLEGOS - TT",
        "Latitud": -51.62925981,
        "Longitud": -69.24682617,
        "Domicilio": "Ruta 3 km 2595",
        "CD_ORIGEN": "Cordoba",
        "Turnos": "primera_ventana"
    },
    {
        "Categoria": "Mini Hiper - Interior",
        "Identificador": 161,
        "Nombre": "161 - USHUAIA - TT",
        "Latitud": -54.81430048,
        "Longitud": -68.32558393,
        "Domicilio": "12 de Octubre 169 Ushuaia Tierra del Fuego Arge",
        "CD_ORIGEN": "Mendoza",
        "Turnos": "segunda_ventana"
    },
    {
        "Categoria": "Market - Interior",
        "Identificador": 142,
        "Nombre": "142 - RIO GRANDE",
        "Latitud": -53.78566882,
        "Longitud": -67.7031827,
        "Domicilio": "Av. San Martín 685 Río Grande Tierra del Fuego",
        "CD_ORIGEN": "Malvinas",
        "Turnos": "primera_ventana"
    },
    {
        "Categoria": "Mini Hiper - Interior",
        "Identificador": 180,
        "Nombre": "180 - RIO GRANDE - TT",
        "Latitud": -53.77421329,
        "Longitud": -67.72085309,
        "Domicilio": "Perú 76 V9420 Río Grande Tierra del Fuego Argen",
        "CD_ORIGEN": "E.Echeverria",
        "Turnos": "segunda_ventana"
    },
    {
        "Categoria": "CD",
        "Identificador": 951,
        "Nombre": "950 - CD, E.ECHEVERRIA",
        "Latitud": -34.74483192,
        "Longitud": -58.50255251,
        "Domicilio": "Av. Ruta de la Tradicion 7732",
        "CD_ORIGEN": "Munro",
        "Turnos": "primera_ventana"
    },
    {
        "Categoria": "CD",
        "Identificador": 953,
        "Nombre": "953 - E.ECHEVERRIA - TT",
        "Latitud": -34.74483192,
        "Longitud": -58.50255251,
        "Domicilio": "Av. Ruta de la Tradicion 7732",
        "CD_ORIGEN": "Tortuguitas",
        "Turnos": "primera_ventana"
    },
    {
        "Categoria": "Market - Interior",
        "Identificador": 143,
        "Nombre": "143 - RIO GALLEGOS - TT",
        "Latitud": -51.62295911,
        "Longitud": -69.21319127,
        "Domicilio": "Av. Dr. Nestor Kirchner 742",
        "CD_ORIGEN": "NIC",
        "Turnos": "segunda_ventana"
    },
    {
        "Categoria": "Market - AMBA",
        "Identificador": 201,
        "Nombre": "201 - CARAPACHAY - TT",
        "Latitud": -34.52766235,
        "Longitud": -58.53576243,
        "Domicilio": "Independencia 3067 - Carapachay",
        "CD_ORIGEN": "Cordoba",
        "Turnos": "primera_ventana"
    },
    {
        "Categoria": "Market - AMBA",
        "Identificador": 512,
        "Nombre": "512 - PILAR - TT",
        "Latitud": -34.45482827,
        "Longitud": -58.91090155,
        "Domicilio": "SUPER - RAMIREZ 43 512",
        "CD_ORIGEN": "Mendoza",
        "Turnos": "primera_ventana"
    },
    {
        "Categoria": "Market - AMBA",
        "Identificador": 518,
        "Nombre": "518 - OLIVOS - TT",
        "Latitud": -34.50914704,
        "Longitud": -58.49244475,
        "Domicilio": "SUPER - AV. MAIPU 2960 518",
        "CD_ORIGEN": "Malvinas",
        "Turnos": "segunda_ventana"
    },
    {
        "Categoria": "Market - AMBA",
        "Identificador": 253,
        "Nombre": "253 - OLIVOSTanti - TT",
        "Latitud": -34.50436286,
        "Longitud": -58.49322394,
        "Domicilio": "Av Maipu 3393 - Olivos",
        "CD_ORIGEN": "E.Echeverria",
        "Turnos": "segunda_ventana"
    },
    {
        "Categoria": "Market - AMBA",
        "Identificador": 252,
        "Nombre": "252 - ACASSUSO - TT",
        "Latitud": -34.47653417,
        "Longitud": -58.49778101,
        "Domicilio": "Av. Del Libertador 14893 - Acassuso",
        "CD_ORIGEN": "Munro",
        "Turnos": "segunda_ventana"
    },
    {
        "Categoria": "Market - AMBA",
        "Identificador": 202,
        "Nombre": "202 - MARTINEZ Florida - TT",
        "Latitud": -34.48109001,
        "Longitud": -58.55253696,
        "Domicilio": "J.S. Fernandez 1235 - Lomas de San Isidro",
        "CD_ORIGEN": "Tortuguitas",
        "Turnos": "primera_ventana"
    },
    {
        "Categoria": "Market - AMBA",
        "Identificador": 209,
        "Nombre": "209 - MARTINEZ Libertador - TT",
        "Latitud": -34.4904682,
        "Longitud": -58.48524447,
        "Domicilio": "Av. Del Libertador 13060 - La Lucila",
        "CD_ORIGEN": "NIC",
        "Turnos": "primera_ventana"
    },
    {
        "Categoria": "Market - AMBA",
        "Identificador": 203,
        "Nombre": "203 - CHILAVERT - TT",
        "Latitud": -34.54141906,
        "Longitud": -58.5631907,
        "Domicilio": "Lacroze 5910 - Villa Ballester",
        "CD_ORIGEN": "Cordoba",
        "Turnos": "primera_ventana"
    },
    {
        "Categoria": "Market - Interior",
        "Identificador": 165,
        "Nombre": "165 - PUERTO MADRYN - TT",
        "Latitud": -42.76663515,
        "Longitud": -65.03529668,
        "Domicilio": "28 de July 0136",
        "CD_ORIGEN": "Mendoza",
        "Turnos": "segunda_ventana"
    },
    {
        "Categoria": "Market - AMBA",
        "Identificador": 516,
        "Nombre": "516_COSME BECCAR - TT",
        "Latitud": -34.47077736,
        "Longitud": -58.51428866,
        "Domicilio": "SUPER - COSME BECCAR 437 516",
        "CD_ORIGEN": "Malvinas",
        "Turnos": "segunda_ventana"
    },
    {
        "Categoria": "Market - AMBA",
        "Identificador": 208,
        "Nombre": "208_CAMPANA - TT",
        "Latitud": -34.16281688,
        "Longitud": -58.96543086,
        "Domicilio": "French 328 o Av Mitre 1085-Campana -Bs As",
        "CD_ORIGEN": "E.Echeverria",
        "Turnos": "segunda_ventana"
    },
    {
        "Categoria": "Market - AMBA",
        "Identificador": 215,
        "Nombre": "215-SCALABRINI ORTIZ - TT",
        "Latitud": -34.5800588,
        "Longitud": -58.41168612,
        "Domicilio": "null",
        "CD_ORIGEN": "Munro",
        "Turnos": "segunda_ventana"
    },
    {
        "Categoria": "Market - AMBA",
        "Identificador": 254,
        "Nombre": "254_DIEGO CARMAN",
        "Latitud": -34.49518603,
        "Longitud": -58.54583144,
        "Domicilio": "Av. Diego Carman 451 - Lomas de San Isidro",
        "CD_ORIGEN": "Tortuguitas",
        "Turnos": "primera_ventana"
    },
    {
        "Categoria": "Market - AMBA",
        "Identificador": 277,
        "Nombre": "277 - SCALABRINI ORTIZ - TT",
        "Latitud": -34.58922516,
        "Longitud": -58.42268586,
        "Domicilio": "SCALABRINI ORTIZ 1850",
        "CD_ORIGEN": "NIC",
        "Turnos": "segunda_ventana"
    },
    {
        "Categoria": "Market - AMBA",
        "Identificador": 258,
        "Nombre": "258 - Villa Pueyrredon Av. Mosconi - TT",
        "Latitud": -34.58603657,
        "Longitud": -58.50177884,
        "Domicilio": "AV.MOSCONI - 2861",
        "CD_ORIGEN": "Cordoba",
        "Turnos": "primera_ventana"
    },
    {
        "Categoria": "Market - AMBA",
        "Identificador": 151,
        "Nombre": "151 - Uriburu - TT",
        "Latitud": -34.60957262,
        "Longitud": -58.39864254,
        "Domicilio": "RIVADAVIA NRO 2243",
        "CD_ORIGEN": "Mendoza",
        "Turnos": "segunda_ventana"
    },
    {
        "Categoria": "Market - AMBA",
        "Identificador": 189,
        "Nombre": "189 - Av Corrientes Ex Home - TT",
        "Latitud": -34.60367379,
        "Longitud": -58.38312998,
        "Domicilio": "AV CORRIENTES NRO 1160",
        "CD_ORIGEN": "Malvinas",
        "Turnos": "primera_ventana"
    },
    {
        "Categoria": "Market - AMBA",
        "Identificador": 381,
        "Nombre": "381 - Super Av. Cordoba 2529 - TT",
        "Latitud": -34.59889357,
        "Longitud": -58.40280277,
        "Domicilio": "Av. Cordoba 2529",
        "CD_ORIGEN": "E.Echeverria",
        "Turnos": "primera_ventana"
    },
    {
        "Categoria": "Market - AMBA",
        "Identificador": 116,
        "Nombre": "116 - Avenida Av. Sta. Fe - TT",
        "Latitud": -34.59646708,
        "Longitud": -58.39593363,
        "Domicilio": "AV. SANTA FE - 1954",
        "CD_ORIGEN": "Munro",
        "Turnos": "segunda_ventana"
    },
    {
        "Categoria": "Market - AMBA",
        "Identificador": 510,
        "Nombre": "510 - Super Av. Diaz Velez y Medrano - TT",
        "Latitud": -34.60865426,
        "Longitud": -58.42231035,
        "Domicilio": "Diaz Velez y Medrano",
        "CD_ORIGEN": "Tortuguitas",
        "Turnos": "segunda_ventana"
    },
    {
        "Categoria": "Market - AMBA",
        "Identificador": 237,
        "Nombre": "237 - Villa Del Parque - TT",
        "Latitud": -34.60196056,
        "Longitud": -58.48893642,
        "Domicilio": "NAZCA V.DEL PARQUE - 2951",
        "CD_ORIGEN": "NIC",
        "Turnos": "segunda_ventana"
    },
    {
        "Categoria": "Market - AMBA",
        "Identificador": 515,
        "Nombre": "515 - Super Av. Francisco Beiro 5204 - TT",
        "Latitud": -34.61335312,
        "Longitud": -58.52333844,
        "Domicilio": "Fco. Beiro 5204",
        "CD_ORIGEN": "Cordoba",
        "Turnos": "primera_ventana"
    },
    {
        "Categoria": "Market - AMBA",
        "Identificador": 389,
        "Nombre": "389 - Super Av. Santa Fe 5234 - TT",
        "Latitud": -34.57626697,
        "Longitud": -58.43396723,
        "Domicilio": "Santa Fe 5234",
        "CD_ORIGEN": "Mendoza",
        "Turnos": "primera_ventana"
    },
    {
        "Categoria": "Market - AMBA",
        "Identificador": 519,
        "Nombre": "519 - Super Lacroze 3117 - TT",
        "Latitud": -34.57704876,
        "Longitud": -58.44917536,
        "Domicilio": "Lacroze 3117",
        "CD_ORIGEN": "Malvinas",
        "Turnos": "segunda_ventana"
    },
    {
        "Categoria": "Market - AMBA",
        "Identificador": 198,
        "Nombre": "198 - Cabildo Nuñez - TT",
        "Latitud": -34.55220014,
        "Longitud": -58.4676826,
        "Domicilio": "CABILDO NRO 3190",
        "CD_ORIGEN": "E.Echeverria",
        "Turnos": "primera_ventana"
    },
    {
        "Categoria": "Market - AMBA",
        "Identificador": 195,
        "Nombre": "195 - Olazabal - TT",
        "Latitud": -34.5747917,
        "Longitud": -58.48209411,
        "Domicilio": "AV. OLAZABAL NRO 4734",
        "CD_ORIGEN": "Munro",
        "Turnos": "segunda_ventana"
    },
    {
        "Categoria": "Market - AMBA",
        "Identificador": 182,
        "Nombre": "182 - Juramento Cramer - TT",
        "Latitud": -34.56495889,
        "Longitud": -58.46179247,
        "Domicilio": "JURAMENTO NRO 2971",
        "CD_ORIGEN": "Tortuguitas",
        "Turnos": "segunda_ventana"
    },
    {
        "Categoria": "Market - AMBA",
        "Identificador": 109,
        "Nombre": "109 - La Plata Express - TT",
        "Latitud": -34.91391045,
        "Longitud": -57.95243829,
        "Domicilio": "CALLE 7 - 767",
        "CD_ORIGEN": "NIC",
        "Turnos": "segunda_ventana"
    },
    {
        "Categoria": "Market - AMBA",
        "Identificador": 144,
        "Nombre": "144 - La Plata II - TT",
        "Latitud": -34.9231586,
        "Longitud": -57.94988751,
        "Domicilio": "CALLE 12 NRO 1200",
        "CD_ORIGEN": "Cordoba",
        "Turnos": "primera_ventana"
    },
    {
        "Categoria": "Market - Interior",
        "Identificador": 262,
        "Nombre": "262 - Parana J. M. Paz - TT",
        "Latitud": -31.74157149,
        "Longitud": -60.54117993,
        "Domicilio": "GENERAL GALAN NRO 1887",
        "CD_ORIGEN": "Mendoza",
        "Turnos": "primera_ventana"
    },
    {
        "Categoria": "Market - Interior",
        "Identificador": 263,
        "Nombre": "263 - Parana Coronel Diaz - TT",
        "Latitud": -31.75409801,
        "Longitud": -60.51141858,
        "Domicilio": "SANTOS DOMINGUEZ NRO 618",
        "CD_ORIGEN": "Malvinas",
        "Turnos": "segunda_ventana"
    },
    {
        "Categoria": "Market - Interior",
        "Identificador": 125,
        "Nombre": "125 - Parana Tia - TT",
        "Latitud": -31.73033896,
        "Longitud": -60.5283165,
        "Domicilio": "URUGUAY - 35",
        "CD_ORIGEN": "E.Echeverria",
        "Turnos": "segunda_ventana"
    },
    {
        "Categoria": "Market - Interior",
        "Identificador": 249,
        "Nombre": "249 - Parana America - TT",
        "Latitud": -31.74851,
        "Longitud": -60.52404661,
        "Domicilio": "AV.AMERICAS - 1731",
        "CD_ORIGEN": "Munro",
        "Turnos": "segunda_ventana"
    },
    {
        "Categoria": "Market - Interior",
        "Identificador": 266,
        "Nombre": "266 - Parana Don Bosco - TT",
        "Latitud": -31.73321336,
        "Longitud": -60.50868273,
        "Domicilio": "DON BOSCO Y SUIPACHA SN",
        "CD_ORIGEN": "Tortuguitas",
        "Turnos": "primera_ventana"
    },
    {
        "Categoria": "Market - Interior",
        "Identificador": 264,
        "Nombre": "264 - Parana Mexico - TT",
        "Latitud": -31.72568496,
        "Longitud": -60.53450704,
        "Domicilio": "MEXICO Y TUCUMAN",
        "CD_ORIGEN": "NIC",
        "Turnos": "segunda_ventana"
    },
    {
        "Categoria": "Market - Interior",
        "Identificador": 181,
        "Nombre": "181 - Parana Parque - TT",
        "Latitud": -31.72290162,
        "Longitud": -60.5290997,
        "Domicilio": "SANTA FE NRO 606 ESQ.MALVINAS",
        "CD_ORIGEN": "Cordoba",
        "Turnos": "segunda_ventana"
    },
    {
        "Categoria": "Market - Interior",
        "Identificador": 110,
        "Nombre": "110 - Corrientes Express - TT",
        "Latitud": -27.46746927,
        "Longitud": -58.83354664,
        "Domicilio": "JUNIN - 1336",
        "CD_ORIGEN": "Mendoza",
        "Turnos": "segunda_ventana"
    },
    {
        "Categoria": "Market - Interior",
        "Identificador": 141,
        "Nombre": "141 - Formosa - TT",
        "Latitud": -26.181841,
        "Longitud": -58.16576242,
        "Domicilio": "ESPANA NRO 160",
        "CD_ORIGEN": "Malvinas",
        "Turnos": "segunda_ventana"
    },
    {
        "Categoria": "Market - Interior",
        "Identificador": 122,
        "Nombre": "122 - Jujuy - TT",
        "Latitud": -24.18478235,
        "Longitud": -65.30489087,
        "Domicilio": "BELGRANO - 823",
        "CD_ORIGEN": "E.Echeverria",
        "Turnos": "primera_ventana"
    },
    {
        "Categoria": "Market - Interior",
        "Identificador": 119,
        "Nombre": "119 - Rio IV - TT",
        "Latitud": -33.12589823,
        "Longitud": -64.34969187,
        "Domicilio": "SOBREMONTE - 902",
        "CD_ORIGEN": "Munro",
        "Turnos": "segunda_ventana"
    },
    {
        "Categoria": "Market - Interior",
        "Identificador": 191,
        "Nombre": "191 - Mar del Plata - TT",
        "Latitud": -38.00066051,
        "Longitud": -57.54796386,
        "Domicilio": "CORDOBA NRO 1830",
        "CD_ORIGEN": "Tortuguitas",
        "Turnos": "segunda_ventana"
    },
    {
        "Categoria": "Market - Interior",
        "Identificador": 130,
        "Nombre": "130 - Mar del Plata Express - TT",
        "Latitud": -37.99869905,
        "Longitud": -57.55411148,
        "Domicilio": "CATAMARCA - 1965",
        "CD_ORIGEN": "NIC",
        "Turnos": "primera_ventana"
    },
    {
        "Categoria": "Market - Interior",
        "Identificador": 146,
        "Nombre": "146 - Trelew - TT",
        "Latitud": -43.25136073,
        "Longitud": -65.31019543,
        "Domicilio": "RIVADAVIA ESQ. 9 DE JULIO",
        "CD_ORIGEN": "Cordoba",
        "Turnos": "segunda_ventana"
    },
    {
        "Categoria": "Market - AMBA",
        "Identificador": 148,
        "Nombre": "148 - 9 de Julio - TT",
        "Latitud": -34.60784849,
        "Longitud": -58.38057518,
        "Domicilio": "AV. RIVADAVIA NRO 999",
        "CD_ORIGEN": "Mendoza",
        "Turnos": "segunda_ventana"
    },
    {
        "Categoria": "Market - AMBA",
        "Identificador": 385,
        "Nombre": "385 - Super Av. Independencia 456 - TT",
        "Latitud": -34.61718397,
        "Longitud": -58.37234616,
        "Domicilio": "Av. Independencia nro. 456",
        "CD_ORIGEN": "Malvinas",
        "Turnos": "segunda_ventana"
    },
    {
        "Categoria": "Market - AMBA",
        "Identificador": 120,
        "Nombre": "120 - Belgrano (Cabildo y Monroe) - TT",
        "Latitud": -34.55817665,
        "Longitud": -58.45858857,
        "Domicilio": "AV. CABILDO - 2441",
        "CD_ORIGEN": "E.Echeverria",
        "Turnos": "segunda_ventana"
    },
    {
        "Categoria": "Market - Interior",
        "Identificador": 295,
        "Nombre": "295 - Granaderos - TT",
        "Latitud": -31.37440518,
        "Longitud": -64.21379507,
        "Domicilio": "LOS GRANADEROS - 2916",
        "CD_ORIGEN": "Munro",
        "Turnos": "segunda_ventana"
    },
    {
        "Categoria": "Market - Interior",
        "Identificador": 137,
        "Nombre": "137 - San Luis - TT",
        "Latitud": -33.3034614,
        "Longitud": -66.33647919,
        "Domicilio": "PRINGLES NRO 963",
        "CD_ORIGEN": "Tortuguitas",
        "Turnos": "segunda_ventana"
    },
    {
        "Categoria": "Market - Interior",
        "Identificador": 134,
        "Nombre": "134 - Tandil (NRT) - TT",
        "Latitud": -37.32677009,
        "Longitud": -59.13539171,
        "Domicilio": "9 DE JULIO NRO 548",
        "CD_ORIGEN": "NIC",
        "Turnos": "primera_ventana"
    },
    {
        "Categoria": "Market - Interior",
        "Identificador": 255,
        "Nombre": "255 - Pergamino II (El Guri) - TT",
        "Latitud": -33.90289737,
        "Longitud": -60.56893587,
        "Domicilio": "BOULEVARD ROCHA - 1352",
        "CD_ORIGEN": "Cordoba",
        "Turnos": "primera_ventana"
    },
    {
        "Categoria": "Market - Interior",
        "Identificador": 135,
        "Nombre": "135 - La Rioja - TT",
        "Latitud": -29.41175955,
        "Longitud": -66.85732126,
        "Domicilio": "25 DE MAYO NRO 151",
        "CD_ORIGEN": "Mendoza",
        "Turnos": "primera_ventana"
    },
    {
        "Categoria": "Market - AMBA",
        "Identificador": 386,
        "Nombre": "386 - Super Av. Belgrano 1160 - TT",
        "Latitud": -34.61325476,
        "Longitud": -58.38324666,
        "Domicilio": "Av. Belgrano nro. 1160",
        "CD_ORIGEN": "Malvinas",
        "Turnos": "segunda_ventana"
    },
    {
        "Categoria": "Market - AMBA",
        "Identificador": 511,
        "Nombre": "511 - Super Av. Rivadavia 3221 - TT",
        "Latitud": -34.61036734,
        "Longitud": -58.41190338,
        "Domicilio": "Rivadavia 3221",
        "CD_ORIGEN": "E.Echeverria",
        "Turnos": "primera_ventana"
    },
    {
        "Categoria": "Market - AMBA",
        "Identificador": 491,
        "Nombre": "491 - Super Av. Montes de Oca 970 - TT",
        "Latitud": -34.63963425,
        "Longitud": -58.37467432,
        "Domicilio": "Montes de Oca 970",
        "CD_ORIGEN": "Munro",
        "Turnos": "segunda_ventana"
    },
    {
        "Categoria": "Market - AMBA",
        "Identificador": 115,
        "Nombre": "115 - Flores (Ex Home) - TT",
        "Latitud": -34.62721364,
        "Longitud": -58.45828414,
        "Domicilio": "AV. RIVADAVIA - 6538",
        "CD_ORIGEN": "Tortuguitas",
        "Turnos": "segunda_ventana"
    },
    {
        "Categoria": "Market - AMBA",
        "Identificador": 390,
        "Nombre": "390 - Super Av. Rivadavia 5973 - TT",
        "Latitud": -34.62341734,
        "Longitud": -58.44878376,
        "Domicilio": "Rivadavia 5973",
        "CD_ORIGEN": "NIC",
        "Turnos": "primera_ventana"
    },
    {
        "Categoria": "Market - AMBA",
        "Identificador": 150,
        "Nombre": "150 - Vidt - TT",
        "Latitud": -34.58743215,
        "Longitud": -58.41304064,
        "Domicilio": "VIDT NRO 2068",
        "CD_ORIGEN": "Cordoba",
        "Turnos": "primera_ventana"
    },
    {
        "Categoria": "Market - Interior",
        "Identificador": 138,
        "Nombre": "138 - Concordia (Tia) - TT",
        "Latitud": -31.3973759,
        "Longitud": -58.01816583,
        "Domicilio": "ENTRE RIOS NRO 635 - 635",
        "CD_ORIGEN": "Mendoza",
        "Turnos": "segunda_ventana"
    },
    {
        "Categoria": "Market - Interior",
        "Identificador": 176,
        "Nombre": "176 - Tucuman I - TT",
        "Latitud": -26.83048063,
        "Longitud": -65.20700634,
        "Domicilio": "24 DE SEPTIEMBRE NRO 653",
        "CD_ORIGEN": "Malvinas",
        "Turnos": "primera_ventana"
    },
    {
        "Categoria": "Market - Interior",
        "Identificador": 177,
        "Nombre": "177 - Tucuman II - TT",
        "Latitud": -26.83070561,
        "Longitud": -65.20237684,
        "Domicilio": "SAN MARTIN NRO 354",
        "CD_ORIGEN": "E.Echeverria",
        "Turnos": "segunda_ventana"
    },
    {
        "Categoria": "Market - AMBA",
        "Identificador": 101,
        "Nombre": "101 - Avellaneda Express - TT",
        "Latitud": -34.66211377,
        "Longitud": -58.36816192,
        "Domicilio": "null",
        "CD_ORIGEN": "Munro",
        "Turnos": "segunda_ventana"
    },
    {
        "Categoria": "Market - Interior",
        "Identificador": 296,
        "Nombre": "296 - Olavarria II - TT",
        "Latitud": -36.90778724,
        "Longitud": -60.3133382,
        "Domicilio": "AV. DEL VALLE - 4379",
        "CD_ORIGEN": "Tortuguitas",
        "Turnos": "segunda_ventana"
    },
    {
        "Categoria": "Market - Interior",
        "Identificador": 114,
        "Nombre": "114 - Bahia Blanca - TT",
        "Latitud": -38.7206711,
        "Longitud": -62.2683996,
        "Domicilio": "BROWN - 51",
        "CD_ORIGEN": "NIC",
        "Turnos": "segunda_ventana"
    },
    {
        "Categoria": "Market - AMBA",
        "Identificador": 490,
        "Nombre": "490 - Super Av. Cordoba 1631 - TT",
        "Latitud": -34.59961147,
        "Longitud": -58.39052081,
        "Domicilio": "Cordoba 1631",
        "CD_ORIGEN": "Cordoba",
        "Turnos": "primera_ventana"
    },
    {
        "Categoria": "Market - AMBA",
        "Identificador": 388,
        "Nombre": "388 - Super Alte. Segui 849 - TT",
        "Latitud": -34.79865129,
        "Longitud": -58.39534879,
        "Domicilio": "Alte. Segui nro. 849",
        "CD_ORIGEN": "Mendoza",
        "Turnos": "segunda_ventana"
    },
    {
        "Categoria": "Market - Interior",
        "Identificador": 289,
        "Nombre": "289 - Lujan de Cuyo - TT",
        "Latitud": -33.03690077,
        "Longitud": -68.8784945,
        "Domicilio": "null",
        "CD_ORIGEN": "Malvinas",
        "Turnos": "primera_ventana"
    },
    {
        "Categoria": "Market - Interior",
        "Identificador": 287,
        "Nombre": "287 - Suipacha - TT",
        "Latitud": -32.87777609,
        "Longitud": -68.85539532,
        "Domicilio": "SUIPACHA - 556",
        "CD_ORIGEN": "E.Echeverria",
        "Turnos": "primera_ventana"
    },
    {
        "Categoria": "Market - Interior",
        "Identificador": 290,
        "Nombre": "290 - Bombal - TT",
        "Latitud": -32.90376728,
        "Longitud": -68.85239124,
        "Domicilio": "BELTRAN - 1858",
        "CD_ORIGEN": "Munro",
        "Turnos": "segunda_ventana"
    },
    {
        "Categoria": "Market - Interior",
        "Identificador": 283,
        "Nombre": "283 - Las Heras - TT",
        "Latitud": -32.88530846,
        "Longitud": -68.84208083,
        "Domicilio": "AV. LAS HERAS - 316",
        "CD_ORIGEN": "Tortuguitas",
        "Turnos": "segunda_ventana"
    },
    {
        "Categoria": "Market - Interior",
        "Identificador": 184,
        "Nombre": "184 - Santa Rosa (Spinetto) - TT",
        "Latitud": -36.60397866,
        "Longitud": -64.28046942,
        "Domicilio": "AV. SPINETTO NRO 1230",
        "CD_ORIGEN": "NIC",
        "Turnos": "primera_ventana"
    },
    {
        "Categoria": "CD",
        "Identificador": 957,
        "Nombre": "957 - CD TORTUGUITAS",
        "Latitud": -34.4502456,
        "Longitud": -58.70605588,
        "Domicilio": "Av. Otto Krause 5108",
        "CD_ORIGEN": "Cordoba",
        "Turnos": "primera_ventana"
    },
    {
        "Categoria": "GENERICO",
        "Identificador": "#Z2",
        "Nombre": "Villa 11-14",
        "Latitud": -34.648,
        "Longitud": -58.433,
        "Domicilio": "null",
        "CD_ORIGEN": "Mendoza",
        "Turnos": "primera_ventana"
    },
    {
        "Categoria": "CD",
        "Identificador": 89,
        "Nombre": "0089 - CD, Esteban Echeverria",
        "Latitud": -34.74483192,
        "Longitud": -58.50255251,
        "Domicilio": "Av. Ruta de la Tradicion 7732",
        "CD_ORIGEN": "Malvinas",
        "Turnos": "primera_ventana"
    },
    {
        "Categoria": "CD",
        "Identificador": 90,
        "Nombre": "0090 - Frigorifico Pacheco",
        "Latitud": -34.44848561,
        "Longitud": -58.65937265,
        "Domicilio": "Junín 1002-1100, General Pacheco, Tigre, B1617, Buenos Aires",
        "CD_ORIGEN": "E.Echeverria",
        "Turnos": "segunda_ventana"
    },
    {
        "Categoria": "Express - AMBA",
        "Identificador": 196,
        "Nombre": "196 - Proxi Av. Corrientes 3651",
        "Latitud": -34.60399081,
        "Longitud": -58.41624133,
        "Domicilio": "AV. CORRIENTES 3651",
        "CD_ORIGEN": "Munro",
        "Turnos": "segunda_ventana"
    },
    {
        "Categoria": "Express - AMBA",
        "Identificador": 199,
        "Nombre": "199 - Proxi Av. Cordoba 1439",
        "Latitud": -34.59938848,
        "Longitud": -58.38755161,
        "Domicilio": "AV.CORDOBA 1439",
        "CD_ORIGEN": "Tortuguitas",
        "Turnos": "segunda_ventana"
    },
    {
        "Categoria": "Express - AMBA",
        "Identificador": 200,
        "Nombre": "200 - Proxi Av. Rivadavia 8421",
        "Latitud": -34.63368902,
        "Longitud": -58.48195463,
        "Domicilio": "AV.RIVADAVIA 8419",
        "CD_ORIGEN": "NIC",
        "Turnos": "segunda_ventana"
    },
    {
        "Categoria": "Express - AMBA",
        "Identificador": 213,
        "Nombre": "213 - Proxi Paraguay 919",
        "Latitud": -34.59766752,
        "Longitud": -58.38045663,
        "Domicilio": "AV. PARAGUAY 919",
        "CD_ORIGEN": "Cordoba",
        "Turnos": "segunda_ventana"
    },
    {
        "Categoria": "Express - AMBA",
        "Identificador": 242,
        "Nombre": "242 - Proxi Av. Nazca 25",
        "Latitud": -34.63006075,
        "Longitud": -58.46993029,
        "Domicilio": "AV. NAZCA 25",
        "CD_ORIGEN": "Mendoza",
        "Turnos": "primera_ventana"
    },
    {
        "Categoria": "Express - AMBA",
        "Identificador": 247,
        "Nombre": "247 - Proxi Av. La Plata 430",
        "Latitud": -34.62001818,
        "Longitud": -58.42823267,
        "Domicilio": "AV. LA PLATA 428430",
        "CD_ORIGEN": "Malvinas",
        "Turnos": "primera_ventana"
    },
    {
        "Categoria": "Express - AMBA",
        "Identificador": 248,
        "Nombre": "248 - Mini Av. Corrientes 3131",
        "Latitud": -34.60398728,
        "Longitud": -58.40960741,
        "Domicilio": "Av. Corrientes 3131",
        "CD_ORIGEN": "E.Echeverria",
        "Turnos": "primera_ventana"
    },
    {
        "Categoria": "Express - AMBA",
        "Identificador": 250,
        "Nombre": "250 - Proxi Pellegrini 587",
        "Latitud": -34.60164844,
        "Longitud": -58.38103652,
        "Domicilio": "CARLOS PELLEGRINI 587",
        "CD_ORIGEN": "Munro",
        "Turnos": "primera_ventana"
    },
    {
        "Categoria": "Express - AMBA",
        "Identificador": 251,
        "Nombre": "251 - Proxi Arce 730",
        "Latitud": -34.56878439,
        "Longitud": -58.43476117,
        "Domicilio": "ARCE 730",
        "CD_ORIGEN": "Tortuguitas",
        "Turnos": "segunda_ventana"
    },
    {
        "Categoria": "Express - AMBA",
        "Identificador": 260,
        "Nombre": "260 - Proxi Las Heras 2397",
        "Latitud": -34.58635458,
        "Longitud": -58.39865327,
        "Domicilio": "AV. LAS HERAS 23972399",
        "CD_ORIGEN": "NIC",
        "Turnos": "segunda_ventana"
    },
    {
        "Categoria": "Express - AMBA",
        "Identificador": 265,
        "Nombre": "265 - Proxi Angel Gallardo 30",
        "Latitud": -34.6024507,
        "Longitud": -58.43269855,
        "Domicilio": "ANGEL GALLARDO 30",
        "CD_ORIGEN": "Cordoba",
        "Turnos": "segunda_ventana"
    },
    {
        "Categoria": "Express - AMBA",
        "Identificador": 291,
        "Nombre": "291 - Proxi Piedras 383",
        "Latitud": -34.61268082,
        "Longitud": -58.37739408,
        "Domicilio": "PIEDRAS 383",
        "CD_ORIGEN": "Mendoza",
        "Turnos": "primera_ventana"
    },
    {
        "Categoria": "Express - AMBA",
        "Identificador": 298,
        "Nombre": "298 - Proxi Formosa 565",
        "Latitud": -34.62132931,
        "Longitud": -58.43597889,
        "Domicilio": "FORMOSA 565",
        "CD_ORIGEN": "Malvinas",
        "Turnos": "segunda_ventana"
    },
    {
        "Categoria": "Express - AMBA",
        "Identificador": 299,
        "Nombre": "299 - Proxi Arenales 975",
        "Latitud": -34.59407403,
        "Longitud": -58.38034987,
        "Domicilio": "ARENALES 975",
        "CD_ORIGEN": "E.Echeverria",
        "Turnos": "primera_ventana"
    },
    {
        "Categoria": "Express - AMBA",
        "Identificador": 300,
        "Nombre": "300 - Proxi Gral Deheza 2239",
        "Latitud": -34.54054417,
        "Longitud": -58.47196475,
        "Domicilio": "GRAL DEHEZA 2239",
        "CD_ORIGEN": "Munro",
        "Turnos": "segunda_ventana"
    },
    {
        "Categoria": "Express - AMBA",
        "Identificador": 301,
        "Nombre": "301 - Proxi Av. Pueyrredon 2464",
        "Latitud": -34.58585994,
        "Longitud": -58.39414179,
        "Domicilio": "AV. PUEYRREDON 2464",
        "CD_ORIGEN": "Tortuguitas",
        "Turnos": "segunda_ventana"
    },
    {
        "Categoria": "Express - AMBA",
        "Identificador": 302,
        "Nombre": "302 - Proxi Esmeralda 823",
        "Latitud": -34.59883652,
        "Longitud": -58.3783114,
        "Domicilio": "ESMERALDA 823",
        "CD_ORIGEN": "NIC",
        "Turnos": "primera_ventana"
    },
    {
        "Categoria": "Express - AMBA",
        "Identificador": 303,
        "Nombre": "303 - Proxi Talcahuano 841",
        "Latitud": -34.59868859,
        "Longitud": -58.38566065,
        "Domicilio": "TALCAHUANO 841",
        "CD_ORIGEN": "Cordoba",
        "Turnos": "segunda_ventana"
    },
    {
        "Categoria": "Express - AMBA",
        "Identificador": 304,
        "Nombre": "304 - Proxi Suipacha 726",
        "Latitud": -34.59971303,
        "Longitud": -58.37965786,
        "Domicilio": "SUIPACHA 726",
        "CD_ORIGEN": "Mendoza",
        "Turnos": "segunda_ventana"
    },
    {
        "Categoria": "Express - AMBA",
        "Identificador": 305,
        "Nombre": "305 - Proxi Maipu 556",
        "Latitud": -34.60167356,
        "Longitud": -58.37669671,
        "Domicilio": "MAIPU 556",
        "CD_ORIGEN": "Malvinas",
        "Turnos": "segunda_ventana"
    },
    {
        "Categoria": "Express - AMBA",
        "Identificador": 306,
        "Nombre": "306 - Proxi Fray Oro 2709",
        "Latitud": -34.57747499,
        "Longitud": -58.42208236,
        "Domicilio": "FRAY J.S.M. ORO 2709",
        "CD_ORIGEN": "E.Echeverria",
        "Turnos": "segunda_ventana"
    },
    {
        "Categoria": "Express - AMBA",
        "Identificador": 307,
        "Nombre": "307 - Proxi Las Heras 1936",
        "Latitud": -34.59093865,
        "Longitud": -58.39329422,
        "Domicilio": "AV. LAS HERAS 1936",
        "CD_ORIGEN": "Munro",
        "Turnos": "primera_ventana"
    },
    {
        "Categoria": "Express - AMBA",
        "Identificador": 308,
        "Nombre": "308 - Proxi Maipu 171",
        "Latitud": -34.6062877,
        "Longitud": -58.37676108,
        "Domicilio": "MAIPU 171",
        "CD_ORIGEN": "Tortuguitas",
        "Turnos": "primera_ventana"
    },
    {
        "Categoria": "Express - AMBA",
        "Identificador": 309,
        "Nombre": "309 - Proxi Campana 3050",
        "Latitud": -34.60261407,
        "Longitud": -58.49618107,
        "Domicilio": "CAMPANA 3042",
        "CD_ORIGEN": "NIC",
        "Turnos": "segunda_ventana"
    },
    {
        "Categoria": "Express - AMBA",
        "Identificador": 310,
        "Nombre": "310 - Proxi Chivilcoy 3840",
        "Latitud": -34.60074627,
        "Longitud": -58.5119015,
        "Domicilio": "CHIVILCOY 3840",
        "CD_ORIGEN": "Cordoba",
        "Turnos": "primera_ventana"
    },
    {
        "Categoria": "Express - AMBA",
        "Identificador": 311,
        "Nombre": "311 - Proxi Monroe 2771",
        "Latitud": -34.56015694,
        "Longitud": -58.4632194,
        "Domicilio": "MONROE 2771",
        "CD_ORIGEN": "Mendoza",
        "Turnos": "segunda_ventana"
    },
    {
        "Categoria": "Express - AMBA",
        "Identificador": 312,
        "Nombre": "312 - Proxi Cervino 4634",
        "Latitud": -34.57515831,
        "Longitud": -58.42288435,
        "Domicilio": "CERVINO 4634",
        "CD_ORIGEN": "Malvinas",
        "Turnos": "segunda_ventana"
    },
    {
        "Categoria": "Express - AMBA",
        "Identificador": 313,
        "Nombre": "313 - Proxi Montaneses 2267",
        "Latitud": -34.55594229,
        "Longitud": -58.45007658,
        "Domicilio": "MONTANESES 2267",
        "CD_ORIGEN": "E.Echeverria",
        "Turnos": "segunda_ventana"
    },
    {
        "Categoria": "Express - AMBA",
        "Identificador": 314,
        "Nombre": "314 - Proxi Segurola 2344",
        "Latitud": -34.61459689,
        "Longitud": -58.50571632,
        "Domicilio": "SEGUROLA 2344",
        "CD_ORIGEN": "Munro",
        "Turnos": "primera_ventana"
    },
    {
        "Categoria": "Express - AMBA",
        "Identificador": 315,
        "Nombre": "315 - Proxi Varela 3191",
        "Latitud": -34.59861129,
        "Longitud": -58.49695489,
        "Domicilio": "JOSE PEDRO VARELA 3191",
        "CD_ORIGEN": "Tortuguitas",
        "Turnos": "segunda_ventana"
    },
    {
        "Categoria": "Express - AMBA",
        "Identificador": 316,
        "Nombre": "316 - Proxi Ramon Falcon 2402",
        "Latitud": -34.62968114,
        "Longitud": -58.46246302,
        "Domicilio": "RAMON FALCON 2402",
        "CD_ORIGEN": "NIC",
        "Turnos": "segunda_ventana"
    },
    {
        "Categoria": "Express - AMBA",
        "Identificador": 317,
        "Nombre": "317 - Proxi Anchorena 1253",
        "Latitud": -34.59473643,
        "Longitud": -58.40631902,
        "Domicilio": "ANCHORENA 1253",
        "CD_ORIGEN": "Cordoba",
        "Turnos": "segunda_ventana"
    },
    {
        "Categoria": "Express - AMBA",
        "Identificador": 318,
        "Nombre": "318 - Proxi Arroyo 859",
        "Latitud": -34.59146416,
        "Longitud": -58.37929845,
        "Domicilio": "ARROYO 859",
        "CD_ORIGEN": "Mendoza",
        "Turnos": "segunda_ventana"
    },
    {
        "Categoria": "Express - AMBA",
        "Identificador": 319,
        "Nombre": "319 - Mini Larralde 2718",
        "Latitud": -34.55063611,
        "Longitud": -58.47089589,
        "Domicilio": "Larralde 2718",
        "CD_ORIGEN": "Malvinas",
        "Turnos": "primera_ventana"
    },
    {
        "Categoria": "Express - AMBA",
        "Identificador": 320,
        "Nombre": "320 - Proxi Sucre 2490",
        "Latitud": -34.56416376,
        "Longitud": -58.4556073,
        "Domicilio": "MARISCAL ANTONIO JOSE DE SUCRE 2490",
        "CD_ORIGEN": "E.Echeverria",
        "Turnos": "primera_ventana"
    },
    {
        "Categoria": "Express - AMBA",
        "Identificador": 321,
        "Nombre": "321 - Proxi Cangallo 33",
        "Latitud": -34.60601394,
        "Longitud": -58.43155861,
        "Domicilio": "CANGALLO 33",
        "CD_ORIGEN": "Munro",
        "Turnos": "segunda_ventana"
    },
    {
        "Categoria": "Express - AMBA",
        "Identificador": 322,
        "Nombre": "322 - Proxi Del Carril 3210",
        "Latitud": -34.59291704,
        "Longitud": -58.50196123,
        "Domicilio": "Del Carril 3210",
        "CD_ORIGEN": "Tortuguitas",
        "Turnos": "primera_ventana"
    },
    {
        "Categoria": "Express - AMBA",
        "Identificador": 323,
        "Nombre": "323 - Proxi Montes De Oca 304",
        "Latitud": -34.63246635,
        "Longitud": -58.37611198,
        "Domicilio": "MONTES DE OCA 304",
        "CD_ORIGEN": "NIC",
        "Turnos": "primera_ventana"
    },
    {
        "Categoria": "Express - AMBA",
        "Identificador": 324,
        "Nombre": "324 - Proxi Directorio 1766",
        "Latitud": -34.63081555,
        "Longitud": -58.45250666,
        "Domicilio": "DIRECTORIO 1766",
        "CD_ORIGEN": "Cordoba",
        "Turnos": "primera_ventana"
    },
    {
        "Categoria": "Express - AMBA",
        "Identificador": 325,
        "Nombre": "325 - Proxi Vidal 2355",
        "Latitud": -34.56193728,
        "Longitud": -58.46228063,
        "Domicilio": "VIDAL 2357",
        "CD_ORIGEN": "Mendoza",
        "Turnos": "segunda_ventana"
    },
    {
        "Categoria": "Express - AMBA",
        "Identificador": 326,
        "Nombre": "326 - Proxi Jonte 4872",
        "Latitud": -34.62003583,
        "Longitud": -58.50630641,
        "Domicilio": "ALVAREZ JONTE 4872",
        "CD_ORIGEN": "Malvinas",
        "Turnos": "segunda_ventana"
    },
    {
        "Categoria": "Express - AMBA",
        "Identificador": 327,
        "Nombre": "327 - Proxi Las Heras 2643",
        "Latitud": -34.58457035,
        "Longitud": -58.40030551,
        "Domicilio": "AV. LAS HERAS 2643",
        "CD_ORIGEN": "E.Echeverria",
        "Turnos": "primera_ventana"
    },
    {
        "Categoria": "Express - AMBA",
        "Identificador": 328,
        "Nombre": "328 - Proxi Godoy Cruz 2793",
        "Latitud": -34.57769361,
        "Longitud": -58.4243542,
        "Domicilio": "GODOY CRUZ 2793",
        "CD_ORIGEN": "Munro",
        "Turnos": "segunda_ventana"
    },
    {
        "Categoria": "Express - AMBA",
        "Identificador": 329,
        "Nombre": "329 - Proxi Lavalle 1747",
        "Latitud": -34.60301147,
        "Longitud": -58.39170098,
        "Domicilio": "LAVALLE 1747",
        "CD_ORIGEN": "Tortuguitas",
        "Turnos": "segunda_ventana"
    },
    {
        "Categoria": "Express - AMBA",
        "Identificador": 330,
        "Nombre": "330 - Proxi Fitz Roy 2470",
        "Latitud": -34.57814855,
        "Longitud": -58.42920899,
        "Domicilio": "FITZ ROY 2470",
        "CD_ORIGEN": "NIC",
        "Turnos": "segunda_ventana"
    },
    {
        "Categoria": "Express - AMBA",
        "Identificador": 331,
        "Nombre": "331 - Proxi Charcas 3171",
        "Latitud": -34.59231647,
        "Longitud": -58.4110558,
        "Domicilio": "CHARCAS 317173",
        "CD_ORIGEN": "Cordoba",
        "Turnos": "primera_ventana"
    },
    {
        "Categoria": "Express - AMBA",
        "Identificador": 332,
        "Nombre": "332 - Proxi Billinghurst 1380",
        "Latitud": -34.593787,
        "Longitud": -58.41311038,
        "Domicilio": "BILINGHURST 1380",
        "CD_ORIGEN": "Mendoza",
        "Turnos": "segunda_ventana"
    },
    {
        "Categoria": "Express - AMBA",
        "Identificador": 334,
        "Nombre": "334 - Proxi Paraguay 521",
        "Latitud": -34.5974301,
        "Longitud": -58.37465286,
        "Domicilio": "PARAGUAY 521",
        "CD_ORIGEN": "Malvinas",
        "Turnos": "segunda_ventana"
    },
    {
        "Categoria": "Express - AMBA",
        "Identificador": 335,
        "Nombre": "335 - Proxi Cuba 2776",
        "Latitud": -34.55482011,
        "Longitud": -58.45998466,
        "Domicilio": "CUBA 2776",
        "CD_ORIGEN": "E.Echeverria",
        "Turnos": "segunda_ventana"
    },
    {
        "Categoria": "Express - AMBA",
        "Identificador": 336,
        "Nombre": "336 - Proxi Charcas 3315",
        "Latitud": -34.59160106,
        "Longitud": -58.41247201,
        "Domicilio": "CHARCAS 3315",
        "CD_ORIGEN": "Munro",
        "Turnos": "primera_ventana"
    },
    {
        "Categoria": "Express - AMBA",
        "Identificador": 337,
        "Nombre": "337 - Proxi Lacroze 2566",
        "Latitud": -34.5721503,
        "Longitud": -58.44608545,
        "Domicilio": "LACROZE 2566",
        "CD_ORIGEN": "Tortuguitas",
        "Turnos": "primera_ventana"
    },
    {
        "Categoria": "Express - AMBA",
        "Identificador": 338,
        "Nombre": "338 - Proxi Tucuman 831",
        "Latitud": -34.60121214,
        "Longitud": -58.37887734,
        "Domicilio": "TUCUMAN 831",
        "CD_ORIGEN": "NIC",
        "Turnos": "segunda_ventana"
    },
    {
        "Categoria": "Express - AMBA",
        "Identificador": 339,
        "Nombre": "339 - Proxi Los Incas 4466",
        "Latitud": -34.5809311,
        "Longitud": -58.47368538,
        "Domicilio": "LOS INCAS 4466",
        "CD_ORIGEN": "Cordoba",
        "Turnos": "primera_ventana"
    },
    {
        "Categoria": "Express - AMBA",
        "Identificador": 340,
        "Nombre": "340 - Proxi Ortega y Gasset 1876",
        "Latitud": -34.57043865,
        "Longitud": -58.43280584,
        "Domicilio": "ORTEGA Y GASSET 1876",
        "CD_ORIGEN": "Mendoza",
        "Turnos": "primera_ventana"
    },
    {
        "Categoria": "Express - AMBA",
        "Identificador": 341,
        "Nombre": "341 - Proxi Viamonte 352",
        "Latitud": -34.59953181,
        "Longitud": -58.37217993,
        "Domicilio": "VIAMONTE 352",
        "CD_ORIGEN": "Malvinas",
        "Turnos": "segunda_ventana"
    },
    {
        "Categoria": "Express - AMBA",
        "Identificador": 343,
        "Nombre": "343 - Proxi Amenabar 1187",
        "Latitud": -34.57003005,
        "Longitud": -58.45043063,
        "Domicilio": "AMENABAR 1187",
        "CD_ORIGEN": "E.Echeverria",
        "Turnos": "primera_ventana"
    },
    {
        "Categoria": "Express - AMBA",
        "Identificador": 344,
        "Nombre": "344 - Proxi Marcelo T. Alvear 2251",
        "Latitud": -34.59674124,
        "Longitud": -58.3996135,
        "Domicilio": "MARCELO T. ALVEAR 2251",
        "CD_ORIGEN": "Munro",
        "Turnos": "segunda_ventana"
    },
    {
        "Categoria": "Express - AMBA",
        "Identificador": 345,
        "Nombre": "345 - Proxi Pueyrredon 672",
        "Latitud": -34.60252576,
        "Longitud": -58.40514421,
        "Domicilio": "PUEYRREDON 672",
        "CD_ORIGEN": "Tortuguitas",
        "Turnos": "segunda_ventana"
    },
    {
        "Categoria": "Express - AMBA",
        "Identificador": 346,
        "Nombre": "346 - Proxi Suarez 1599",
        "Latitud": -34.63845143,
        "Longitud": -58.37290943,
        "Domicilio": "SUAREZ 1599",
        "CD_ORIGEN": "NIC",
        "Turnos": "primera_ventana"
    },
    {
        "Categoria": "Express - AMBA",
        "Identificador": 347,
        "Nombre": "347 - Proxi Pacheco de Melo 2648",
        "Latitud": -34.58681388,
        "Longitud": -58.4015125,
        "Domicilio": "PACHECO DE MELO 2648",
        "CD_ORIGEN": "Cordoba",
        "Turnos": "segunda_ventana"
    },
    {
        "Categoria": "Express - AMBA",
        "Identificador": 348,
        "Nombre": "348 - Proxi Rivadavia 3421",
        "Latitud": -34.61043798,
        "Longitud": -58.41473579,
        "Domicilio": "RIVADAVIA 3421",
        "CD_ORIGEN": "Mendoza",
        "Turnos": "primera_ventana"
    },
    {
        "Categoria": "Express - AMBA",
        "Identificador": 349,
        "Nombre": "349 - Proxi Av Cabildo 34",
        "Latitud": -34.57480827,
        "Longitud": -58.43661457,
        "Domicilio": "CABILDO 34",
        "CD_ORIGEN": "Malvinas",
        "Turnos": "primera_ventana"
    },
    {
        "Categoria": "Express - AMBA",
        "Identificador": 350,
        "Nombre": "350 - Proxi Humboldt 1962",
        "Latitud": -34.58248132,
        "Longitud": -58.43274415,
        "Domicilio": "HUMBOLDT 1962",
        "CD_ORIGEN": "E.Echeverria",
        "Turnos": "segunda_ventana"
    },
    {
        "Categoria": "Express - AMBA",
        "Identificador": 351,
        "Nombre": "351 - Proxi Echeverria 2067",
        "Latitud": -34.56108024,
        "Longitud": -58.45253348,
        "Domicilio": "ECHEVERRIA 2067",
        "CD_ORIGEN": "Munro",
        "Turnos": "segunda_ventana"
    },
    {
        "Categoria": "Express - AMBA",
        "Identificador": 352,
        "Nombre": "352 - Proxi Rodriguez Pena 1183",
        "Latitud": -34.5953392,
        "Longitud": -58.3919397,
        "Domicilio": "RODRIGUEZ PENA 1185",
        "CD_ORIGEN": "Tortuguitas",
        "Turnos": "primera_ventana"
    },
    {
        "Categoria": "Express - AMBA",
        "Identificador": 353,
        "Nombre": "353 - Proxi Talcahuano 467",
        "Latitud": -34.60327198,
        "Longitud": -58.38525832,
        "Domicilio": "TALCAHUANO 467",
        "CD_ORIGEN": "NIC",
        "Turnos": "segunda_ventana"
    },
    {
        "Categoria": "Express - AMBA",
        "Identificador": 354,
        "Nombre": "354 - Proxi Parana 1053",
        "Latitud": -34.59638356,
        "Longitud": -58.38846087,
        "Domicilio": "PARANA 1053",
        "CD_ORIGEN": "Cordoba",
        "Turnos": "primera_ventana"
    },
    {
        "Categoria": "Express - AMBA",
        "Identificador": 355,
        "Nombre": "355 - Proxi Pueyrredon 1054",
        "Latitud": -34.59806377,
        "Longitud": -58.40367168,
        "Domicilio": "PUEYRREDON 1054",
        "CD_ORIGEN": "Mendoza",
        "Turnos": "primera_ventana"
    },
    {
        "Categoria": "Express - AMBA",
        "Identificador": 356,
        "Nombre": "356 - Proxi Callao 1289",
        "Latitud": -34.59423522,
        "Longitud": -58.39328617,
        "Domicilio": "CALLAO 1289",
        "CD_ORIGEN": "Malvinas",
        "Turnos": "segunda_ventana"
    },
    {
        "Categoria": "Express - AMBA",
        "Identificador": 357,
        "Nombre": "357 - Proxi Sarmiento 1592",
        "Latitud": -34.60558645,
        "Longitud": -58.38927371,
        "Domicilio": "SARMIENTO 1592",
        "CD_ORIGEN": "E.Echeverria",
        "Turnos": "primera_ventana"
    },
    {
        "Categoria": "Express - AMBA",
        "Identificador": 360,
        "Nombre": "360 - Proxi Los Incas 5174",
        "Latitud": -34.58615647,
        "Longitud": -58.48142699,
        "Domicilio": "AV. LOS INCAS 5174",
        "CD_ORIGEN": "Munro",
        "Turnos": "segunda_ventana"
    },
    {
        "Categoria": "Express - AMBA",
        "Identificador": 361,
        "Nombre": "361 - Proxi Moldes 1718",
        "Latitud": -34.56722506,
        "Longitud": -58.45644414,
        "Domicilio": "MOLDES 1718",
        "CD_ORIGEN": "Tortuguitas",
        "Turnos": "primera_ventana"
    },
    {
        "Categoria": "Express - AMBA",
        "Identificador": 362,
        "Nombre": "362 - Proxi Directorio 1069",
        "Latitud": -34.62914703,
        "Longitud": -58.44240546,
        "Domicilio": "DIRECTORIO 1063",
        "CD_ORIGEN": "NIC",
        "Turnos": "segunda_ventana"
    },
    {
        "Categoria": "Express - AMBA",
        "Identificador": 363,
        "Nombre": "363 - Proxi Independencia 1833",
        "Latitud": -34.61802277,
        "Longitud": -58.39253783,
        "Domicilio": "INDEPENDENCIA 1833",
        "CD_ORIGEN": "Cordoba",
        "Turnos": "primera_ventana"
    },
    {
        "Categoria": "Express - AMBA",
        "Identificador": 364,
        "Nombre": "364 - Proxi Ciudad de la Paz 353",
        "Latitud": -34.57419098,
        "Longitud": -58.44195485,
        "Domicilio": "CIUDAD DE LA PAZ 353",
        "CD_ORIGEN": "Mendoza",
        "Turnos": "primera_ventana"
    },
    {
        "Categoria": "Express - AMBA",
        "Identificador": 365,
        "Nombre": "365 - Proxi Nazca 1944",
        "Latitud": -34.61215984,
        "Longitud": -58.48082542,
        "Domicilio": "NAZCA 1944",
        "CD_ORIGEN": "Malvinas",
        "Turnos": "segunda_ventana"
    },
    {
        "Categoria": "Express - AMBA",
        "Identificador": 367,
        "Nombre": "367 - Proxi Estado de Israel 4309",
        "Latitud": -34.59800857,
        "Longitud": -58.42724025,
        "Domicilio": "ESTADO DE ISRAEL 4309",
        "CD_ORIGEN": "E.Echeverria",
        "Turnos": "primera_ventana"
    },
    {
        "Categoria": "Express - AMBA",
        "Identificador": 368,
        "Nombre": "368 - Proxi Cuba 2919",
        "Latitud": -34.55301363,
        "Longitud": -58.46192834,
        "Domicilio": "CUBA 2919",
        "CD_ORIGEN": "Munro",
        "Turnos": "primera_ventana"
    },
    {
        "Categoria": "Express - AMBA",
        "Identificador": 369,
        "Nombre": "369 - Proxi Caseros 2864",
        "Latitud": -34.6368217,
        "Longitud": -58.40294614,
        "Domicilio": "CASEROS 2864",
        "CD_ORIGEN": "Tortuguitas",
        "Turnos": "segunda_ventana"
    },
    {
        "Categoria": "Express - AMBA",
        "Identificador": 370,
        "Nombre": "370 - Proxi Juan B. Alberdi 371",
        "Latitud": -34.62282581,
        "Longitud": -58.43279779,
        "Domicilio": "JUAN B. ALBERDI 371",
        "CD_ORIGEN": "NIC",
        "Turnos": "primera_ventana"
    },
    {
        "Categoria": "Express - AMBA",
        "Identificador": 371,
        "Nombre": "371 - Proxi Olazabal 5483",
        "Latitud": -34.5789789,
        "Longitud": -58.49020243,
        "Domicilio": "OLAZABAL 5483",
        "CD_ORIGEN": "Cordoba",
        "Turnos": "primera_ventana"
    },
    {
        "Categoria": "Express - AMBA",
        "Identificador": 372,
        "Nombre": "372 - Mini Av. San Martin 2494",
        "Latitud": -34.60423455,
        "Longitud": -58.46203387,
        "Domicilio": "Av. San Martin 2494",
        "CD_ORIGEN": "Mendoza",
        "Turnos": "primera_ventana"
    },
    {
        "Categoria": "Express - AMBA",
        "Identificador": 373,
        "Nombre": "373 - Proxi 11 de Septiembre 3910",
        "Latitud": -34.54340309,
        "Longitud": -58.46339107,
        "Domicilio": "11 de September 3910",
        "CD_ORIGEN": "Malvinas",
        "Turnos": "primera_ventana"
    },
    {
        "Categoria": "Express - AMBA",
        "Identificador": 374,
        "Nombre": "374 - Proxi Av. Romulo Naon 2401",
        "Latitud": -34.56752986,
        "Longitud": -58.47265542,
        "Domicilio": "AV. ROMULO NAON 2401",
        "CD_ORIGEN": "E.Echeverria",
        "Turnos": "primera_ventana"
    },
    {
        "Categoria": "Express - AMBA",
        "Identificador": 375,
        "Nombre": "375 - Proxi Esmerlda 428",
        "Latitud": -34.60318552,
        "Longitud": -58.37804488,
        "Domicilio": "ESMERALDA 428",
        "CD_ORIGEN": "Munro",
        "Turnos": "primera_ventana"
    },
    {
        "Categoria": "Express - AMBA",
        "Identificador": 376,
        "Nombre": "376 - Proxi Jonte 3709",
        "Latitud": -34.61376689,
        "Longitud": -58.49364638,
        "Domicilio": "JONTE 3709",
        "CD_ORIGEN": "Tortuguitas",
        "Turnos": "primera_ventana"
    },
    {
        "Categoria": "Express - AMBA",
        "Identificador": 378,
        "Nombre": "378 - Proxi Billinghurst 1872-6",
        "Latitud": -34.58917217,
        "Longitud": -58.40904951,
        "Domicilio": "BILLINGHURST 1872 - 1876",
        "CD_ORIGEN": "NIC",
        "Turnos": "primera_ventana"
    },
    {
        "Categoria": "Express - AMBA",
        "Identificador": 379,
        "Nombre": "379 - Proxi Maipu 26",
        "Latitud": -34.60780213,
        "Longitud": -58.37641239,
        "Domicilio": "MAIPU 26",
        "CD_ORIGEN": "Cordoba",
        "Turnos": "segunda_ventana"
    },
    {
        "Categoria": "Express - AMBA",
        "Identificador": 380,
        "Nombre": "380 - Proxi Otamendi 454",
        "Latitud": -34.61153733,
        "Longitud": -58.43343079,
        "Domicilio": "OTAMENDI 494",
        "CD_ORIGEN": "Mendoza",
        "Turnos": "segunda_ventana"
    },
    {
        "Categoria": "Express - AMBA",
        "Identificador": 391,
        "Nombre": "391 - Proxi Cabildo 2865",
        "Latitud": -34.55532818,
        "Longitud": -58.46252203,
        "Domicilio": "CABILDO 2865",
        "CD_ORIGEN": "Malvinas",
        "Turnos": "primera_ventana"
    },
    {
        "Categoria": "Express - AMBA",
        "Identificador": 392,
        "Nombre": "392 - Proxi J. L. Borges 2463-65",
        "Latitud": -34.58222737,
        "Longitud": -58.42150569,
        "Domicilio": "J. L. BORGES 2463-65",
        "CD_ORIGEN": "E.Echeverria",
        "Turnos": "segunda_ventana"
    },
    {
        "Categoria": "Express - AMBA",
        "Identificador": 394,
        "Nombre": "394 - Proxi Santa Fe 4489-91",
        "Latitud": -34.57948683,
        "Longitud": -58.42390627,
        "Domicilio": "AV. SANTA FE 448991",
        "CD_ORIGEN": "Munro",
        "Turnos": "segunda_ventana"
    },
    {
        "Categoria": "Express - AMBA",
        "Identificador": 395,
        "Nombre": "395 - Proxi Federico Lacroze 4106",
        "Latitud": -34.58589968,
        "Longitud": -58.45467389,
        "Domicilio": "FEDERICO LACROZE 4106",
        "CD_ORIGEN": "Tortuguitas",
        "Turnos": "primera_ventana"
    },
    {
        "Categoria": "Express - AMBA",
        "Identificador": 396,
        "Nombre": "396 - Proxi San Martin 2289",
        "Latitud": -34.60402702,
        "Longitud": -58.45924973,
        "Domicilio": "SAN MARTIN 2289",
        "CD_ORIGEN": "NIC",
        "Turnos": "segunda_ventana"
    },
    {
        "Categoria": "Express - AMBA",
        "Identificador": 397,
        "Nombre": "397 - Proxi Corrientes 5980",
        "Latitud": -34.59366335,
        "Longitud": -58.44554365,
        "Domicilio": "CORRIENTES 5980",
        "CD_ORIGEN": "Cordoba",
        "Turnos": "segunda_ventana"
    },
    {
        "Categoria": "Express - AMBA",
        "Identificador": 398,
        "Nombre": "398 - Proxi Av. Rivadavia 9436",
        "Latitud": -34.63719796,
        "Longitud": -58.49727273,
        "Domicilio": "AV. RIVADAVIA 9436",
        "CD_ORIGEN": "Mendoza",
        "Turnos": "primera_ventana"
    },
    {
        "Categoria": "Express - AMBA",
        "Identificador": 400,
        "Nombre": "400 - Proxi Centenera 177",
        "Latitud": -34.62174868,
        "Longitud": -58.44109654,
        "Domicilio": "CENTENERA 177",
        "CD_ORIGEN": "Malvinas",
        "Turnos": "segunda_ventana"
    },
    {
        "Categoria": "Express - AMBA",
        "Identificador": 402,
        "Nombre": "402 - Proxi Av. Corrientes 1974",
        "Latitud": -34.60444649,
        "Longitud": -58.39459777,
        "Domicilio": "AV. CORRIENTES 1974",
        "CD_ORIGEN": "E.Echeverria",
        "Turnos": "primera_ventana"
    },
    {
        "Categoria": "Express - AMBA",
        "Identificador": 403,
        "Nombre": "403 - Proxi Av Santa Fe 5052",
        "Latitud": -34.57700238,
        "Longitud": -58.43079418,
        "Domicilio": "AV SANTA FE 5052",
        "CD_ORIGEN": "Munro",
        "Turnos": "segunda_ventana"
    },
    {
        "Categoria": "Express - AMBA",
        "Identificador": 404,
        "Nombre": "404 - Proxi Medrano 686",
        "Latitud": -34.60221668,
        "Longitud": -58.42069566,
        "Domicilio": "MEDRANO 686",
        "CD_ORIGEN": "Tortuguitas",
        "Turnos": "primera_ventana"
    },
    {
        "Categoria": "Express - AMBA",
        "Identificador": 405,
        "Nombre": "405 - Proxi J. B. Alberdi 5719-23",
        "Latitud": -34.65093657,
        "Longitud": -58.50167155,
        "Domicilio": "J. B. ALBERDI 571923",
        "CD_ORIGEN": "NIC",
        "Turnos": "primera_ventana"
    },
    {
        "Categoria": "Express - AMBA",
        "Identificador": 406,
        "Nombre": "406 - Proxi Salta 1637-39",
        "Latitud": -34.62760209,
        "Longitud": -58.38301331,
        "Domicilio": "SALTA 163739",
        "CD_ORIGEN": "Cordoba",
        "Turnos": "primera_ventana"
    },
    {
        "Categoria": "Express - AMBA",
        "Identificador": 408,
        "Nombre": "408 - Proxi Peru 916",
        "Latitud": -34.61912202,
        "Longitud": -58.37436318,
        "Domicilio": "PERU 916",
        "CD_ORIGEN": "Mendoza",
        "Turnos": "segunda_ventana"
    },
    {
        "Categoria": "Express - AMBA",
        "Identificador": 409,
        "Nombre": "409 - Proxi Gaona 3567",
        "Latitud": -34.62086136,
        "Longitud": -58.47492456,
        "Domicilio": "GAONA 3567",
        "CD_ORIGEN": "Malvinas",
        "Turnos": "primera_ventana"
    },
    {
        "Categoria": "Express - AMBA",
        "Identificador": 410,
        "Nombre": "410 - Proxi Tucuman 2173",
        "Latitud": -34.60216369,
        "Longitud": -58.39776278,
        "Domicilio": "TUCUMAN 2173",
        "CD_ORIGEN": "E.Echeverria",
        "Turnos": "primera_ventana"
    },
    {
        "Categoria": "Express - AMBA",
        "Identificador": 411,
        "Nombre": "411 - Proxi Av. E. Peron 3479",
        "Latitud": -34.64490386,
        "Longitud": -58.46488237,
        "Domicilio": "AV. E. PERON 3479",
        "CD_ORIGEN": "Munro",
        "Turnos": "primera_ventana"
    },
    {
        "Categoria": "Express - AMBA",
        "Identificador": 412,
        "Nombre": "412 - Proxi Av. Caseros 3535",
        "Latitud": -34.63870742,
        "Longitud": -58.41513276,
        "Domicilio": "AV. CASEROS 3535",
        "CD_ORIGEN": "Tortuguitas",
        "Turnos": "primera_ventana"
    },
    {
        "Categoria": "Express - AMBA",
        "Identificador": 413,
        "Nombre": "413 - Proxi Venezuela 4086",
        "Latitud": -34.61779762,
        "Longitud": -58.4221065,
        "Domicilio": "VENEZUELA 4086",
        "CD_ORIGEN": "NIC",
        "Turnos": "primera_ventana"
    },
    {
        "Categoria": "Express - AMBA",
        "Identificador": 414,
        "Nombre": "414 - Proxi Av. San Juan 3900",
        "Latitud": -34.62599531,
        "Longitud": -58.41955304,
        "Domicilio": "AV. SAN JUAN 3900",
        "CD_ORIGEN": "Cordoba",
        "Turnos": "primera_ventana"
    },